name,description,categoryId,size,logoFile,websiteUrl,careersUrl,isHiring,linkedinId,crunchbaseId,finderId,xId,addresses,isMultinational,facebookId,linkedinNum,comeetId,greenhouseId,breezyId,leverId,glassdoorId,filename
Phibro Animal Health,"Phibro Animal Health is a global leader in animal health and nutrition, providing innovative solutions to enhance the productivity and well-being of livestock and poultry.",12,xl,logos/phibro_animal_health-logo.webp,https://www.pahc.com/,https://jobs.pahc.com/,true,phibro-animal-health,phibro-animal-health,phibro-animal-health,,"[{'street': הנגב, 'houseNumber': 2, 'city': קריית שדה התעופה, 'lat': 31.986329799161993, 'lon': 34.911436424754974}]",true,PhibroAnimalHealth,41089,,,,,,companies/510057607.json
Avgol,"A leading global manufacturer specializing in high-quality, high-performance spun melt nonwoven materials for diverse market sectors.",9,l,logos/avgol_industries_1953-logo.webp,https://www.avgol.com/,https://www.avgol.com/careers/,true,avgol,avgol-nonwovens,avgol,Avgolnonwovens,"[{'street': שמשון, 'houseNumber': 9, 'city': פתח תקווה, 'lat': 32.0953047, 'lon': 34.8622572}]",false,,2204213,,,,,,companies/510119068.json
Frutarom,Flavors and Ingredients for Food and Fragrances,17,l,logos/frutarom-industries.webp,,,false,,,frutarom-industries,,"[{'street': א.ת. שגיא 2000, 'houseNumber': NULL, 'city': מגדל העמק, 'lat': 32.68636699148718, 'lon': 35.239891499909426}]",false,,31188,,,,,,companies/510132939.json
Motorola Solutions,Motorola Solutions provides mission-critical communications and analytics solutions for public safety and enterprise security.,18,xl,logos/motorola_solutions_israel-logo.webp,https://www.motorolasolutions.com/,https://www.motorolasolutions.com/en_us/about/careers.html,true,motorolasolutions,,motorola-solutions,MotoSolutions,"[{'street': דרך השלום, 'houseNumber': 5, 'city': תל אביב - יפו, 'lat': 32.0716565, 'lon': 34.7974224}]",true,MotorolaSolutionsIsrael,1771432,,,,,,companies/510180029.json
Silmet,Amalgam alloys and high-quality restorative materials.,12,xs,logos/silmet-logo.webp,https://www.silmetdental.com/,,false,silmet-dental,,silmet,Silmet_Dental,"[{'street': הסדנא, 'houseNumber': 12, 'city': אור יהודה, 'lat': 32.0335253, 'lon': 34.8503725}]",false,Silmet.Dental.Ltd,17932978,,,,,,companies/510210669.json
Bitum,Sealing and Insulation Products Manufacturer,14,s,logos/bitum.webp,https://www.bitum.com/,,false,,,bitum,,"[{'street': היצירה, 'houseNumber': 4, 'city': חיפה, 'lat': 32.81145082325845, 'lon': 35.06263381709358}]",false,bitum.co.il,,,,,,,companies/510324486.json
AGRIDERA Seeds & Agriculture,"Devoted to advancing global agriculture through innovative, sustainable seed solutions and supporting the welfare of farmers and consumers.",17,m,logos/agridera_seeds_agriculture-logo.webp,https://www.agridera.com/,,false,,,agridera-seeds-agriculture,,"[{'street': יגאל אלון, 'houseNumber': 26, 'city': גדרה, 'lat': 31.818786, 'lon': 34.7836388}]",false,,,,,,,,companies/510418759.json
FIS,,10,xl,logos/fis.webp,https://www.fisglobal.com,,false,,,fis,FISGlobal,"[{'street': בר יוחאי, 'houseNumber': 9, 'city': בני ברק, 'lat': 32.07809568369225, 'lon': 34.84131606157112}]",true,FIStoday,3128,,,,,,companies/510452501.json
Unipharm,"חברה ישראלית חלוצה בתחום הגנריקה, מפתחת ומשווקת תרופות חדשניות למגוון מחלות מאז 1975.",12,m,logos/unipharm-logo.webp,https://www.unipharm.co.il/,,false,,,unipharm,,"[{'street': שבט שמעון, 'houseNumber': 1, 'city': תל אביב - יפו, 'lat': 32.10822152859435, 'lon': 34.80427346200784}]",false,%D7%90%D7%95%D7%A0%D7%99%D7%A4%D7%90%D7%A8%D7%9D-%D7%A7%D7%A8%D7%99%D7%99%D7%A8%D7%94-UNP-210754212802928,34220436,,,,,,companies/510457666.json
Teldor,"A provider of telecom, fiber optic, and industrial cables and systems for various indoor and offshore applications.",18,m,logos/teldor_wires_and_cables_ltd-logo.webp,https://www.teldor.com/,,false,teldor,,teldor-wires-and-cables,teldorcables,[],false,TeldorCables,77568,,,,,,companies/510466428.json
Dexcel Pharma,"We specialize in the development, commercialization, manufacturing, and investment in pharmaceutical products.",12,l,logos/dexcel_ltd-logo.webp,https://www.dexcel.com/,https://www.dexcel.com/careers,true,dexcel-pharma,,dexcel,dexcelpharma,[],false,Dexcel-Pharma-446736209025962,1034440,,,,,,companies/510477748.json
ELTA Systems,"Intelligence, Surveillance, and Reconnaissance Solutions",3,l,logos/elta_systems-logo.webp,https://www.iai.co.il/about/groups/elta-systems,,false,elta,,elta-systems,ELTA_SystemsLtd,"[{'street': יצחק הנשיא, 'houseNumber': 100, 'city': אשדוד, 'lat': 31.79557068552066, 'lon': 34.66275782134774}]",false,ELTA.SYSTEMS,9749,,,,,,companies/510487986.json
Amza Technologies,Industrial Surface Finishing and Cleaning,14,s,logos/amza_ltd-logo.webp,https://www.amza-ltd.com/en,,false,amza-ltd,,amza,,"[{'street': נחשון, 'houseNumber': 37, 'city': פתח תקווה, 'lat': 32.107158, 'lon': 34.8961087}]",false,,53452373,,,,,,companies/510504517.json
Unilever,"Providing essential products for nutrition, hygiene, and personal care to enhance daily living.",9,l,logos/unilever_israel_home_and_personal_care-logo.webp,https://www.unilever.com/,https://www.unilever.com/careers/,true,unilever,,unilever,Unilever,"[{'street': יוליוס סימון, 'houseNumber': 52, 'city': חיפה, 'lat': 32.8183522, 'lon': 35.051309}]",true,unilever,1248,,,,,,companies/510516578.json
Sigma Aldrich,Driving life and health advancements through a diverse portfolio of cutting-edge scientific products.,12,xl,logos/sigma_aldrich_israel_ltd-logo.webp,https://www.sigmaaldrich.com/,,false,sigma-aldrich,,sigma-aldrich,SigmaAldrich,"[{'street': פלאוט מנחם, 'houseNumber': 3, 'city': רחובות, 'lat': 31.9125418, 'lon': 34.8065818}]",true,SigmaAldrich,165965,,,,,,companies/510519416.json
Vect,The World's First Parameter Management Company,14,xs,logos/vect.webp,,,false,,,vect,,"[{'street': המלאכה, 'houseNumber': 45, 'city': נתניה, 'lat': 32.28445585994983, 'lon': 34.86058749043448}]",false,,,,,,,,companies/510536915.json
Silbermann,Specializes in producing equipment and systems essential for hospital medical gas infrastructure.,12,s,logos/silbermann_technologies_ltd-logo.webp,https://www.silbermnn.com/,,false,,,silbermann,,"[{'street': הרכבת, 'houseNumber': 5, 'city': פתח תקווה, 'lat': 32.1117723, 'lon': 34.892606}]",false,,11533019,,,,,,companies/510542202.json
Arel Control,Provides an in-depth overview of unavailable page details.,7,s,logos/arel_control_1971-logo.webp,https://arel.com/,,false,,,arel-control,,"[{'street': שידלובסקי, 'houseNumber': 1, 'city': יבנה, 'lat': 31.89440505, 'lon': 34.73544071396607}]",false,,387914,,,,,,companies/510559396.json
Wipro Givon,"Offering cutting-edge technology and IT consulting, this company crafts innovative solutions to tackle complex digital transformations for enterprises.",6,m,logos/wipro_givon_limited-logo.webp,https://www.wipro.com/,https://careers.wipro.com/,true,wipro,,wipro,,"[{'street': לוי יוסף, 'houseNumber': 29, 'city': קריית ביאליק, 'lat': 32.869168085710946, 'lon': 35.09688663916281}]",,,,,,,,,companies/510580533.json
Elpam Electronics,Homeland Security Systems,3,xs,logos/elpam.webp,https://www.elpam.com/,,false,,,elpam,elapme,"[{'street': אביב משה, 'houseNumber': 8, 'city': אור יהודה, 'lat': 32.022074677082145, 'lon': 34.861041817480356}]",false,,5240465,,,,,,companies/510589120.json
Visonic,Home Security Systems,7,m,logos/visonic-logo.webp,https://www.visonic.com/,,false,,,visonic,VisonicTech,"[{'street': זרחין אלכסנדר, 'houseNumber': 13, 'city': רעננה, 'lat': 32.1976788, 'lon': 34.8811941}]",false,Visonic-1809180055806792,166816,,,,,,companies/510637614.json
Singer Instruments & Control,Electromechanical Components and Systems,14,s,logos/singer-instruments-control.webp,https://www.singer-instruments.com/,,false,,,singer-instruments-control,controlsinger,"[{'street': יוזמה, 'houseNumber': 3, 'city': טירת כרמל, 'lat': 32.77248840704991, 'lon': 34.96542808692719}]",false,Singerinstrumentsandcontrol,2379508,,,,,,companies/510704828.json
Magam Safety,"A long-established leader in rescue and protective gear, offering high-quality life rafts, inflatable boats, and life jackets compliant with strict standards.",12,s,logos/magam_safety-logo.webp,https://magam-safety.com/,,false,,,magam-safety,,"[{'street': הסדנא, 'houseNumber': 6, 'city': נוף הגליל, 'lat': 32.7562557, 'lon': 35.3200301}]",false,pages,4847973,,,,,,companies/510713878.json
MSD,"Healthcare company offering prescription medicines, vaccines, biologic therapies and animal health products.",12,xl,logos/msd-logo.webp,https://msd.co.il/,,false,msd-global,,msd,merck,"[{'street': המלאכה, 'houseNumber': 18, 'city': נתניה, 'lat': 32.27985305, 'lon': 34.858477541008384}]",true,MerckInvents,2848937,,,,,,companies/510728967.json
Joshu,Digital Platform for Insurance Professionals,10,s,logos/joshu.webp,https://joshuins.com/,,false,,,joshu,JoinJoshu,"[{'street': ז'בוטינסקי, 'houseNumber': 50, 'city': גבעת שמואל, 'lat': 32.069393903712566, 'lon': 34.84954330252248}]",false,100077134941648,67560087,,,,,,companies/510731136.json
Telefire,"Fire Safety, Building Administration, and Security Services.",7,s,logos/telefire-logo.webp,https://telefire.com/,,false,telefire-fire-&-gas-detectors,telefire-fire,telefire-fire-gas-detectors,,"[{'street': הסיבים, 'houseNumber': 43, 'city': פתח תקווה, 'lat': 32.0916612, 'lon': 34.8571892}]",false,,,,,,,,companies/510758139.json
MTC Industries and Research,They specialize in creating precise motion control electro-mechanical components for aerospace and defense sectors.,3,m,logos/mtc_industries_and_research_carmiel-logo.webp,https://www.mtcind.com/,,false,mtcind,,mtc-industries-research,,"[{'street': המגל, 'houseNumber': 3, 'city': כרמיאל, 'lat': 32.9229588, 'lon': 35.3116627}]",false,,2221838,,,,,,companies/510759988.json
ISPRA,Non-lethal Devices for Crowd Management,3,xs,logos/ispra_by_e_i-logo.webp,https://www.ispraltd.com/,,false,,,ispra,,"[{'street': שד יצחק רבין, 'houseNumber': NULL, 'city': זכרון יעקב, 'lat': 32.5691337, 'lon': 34.9601594}]",false,,1653418,,,,,,companies/510775471.json
Mend,Integrated Application Security Platform,7,l,logos/whitesource-software.webp,https://www.mend.io/,,false,mend-io,,whitesource-software,mend_io,"[{'street': החרוב, 'houseNumber': 22, 'city': כרמיאל, 'lat': 32.91937589865173, 'lon': 35.30452209885261}]",false,mendappsec,2440656,,,,,,companies/510787930.json
Keep,Open-Source Alerts Management and Automation Platform.,14,xs,logos/keep_kontakt_ltd-logo.webp,https://www.keephq.dev/,,false,keepalerting,,keep,keepalerting,"[{'street': גלילי ישראל, 'houseNumber': 9, 'city': תל אביב - יפו, 'lat': 32.10096, 'lon': 34.784826}]",false,,88418678,,,,,,companies/510808629.json
SolidCAM,"The latest version empowers makers, hobbyists, and students with comprehensive CAM capabilities integrated in SOLIDWORKS or Autodesk Inventor for free personal project manufacturing.",14,l,logos/solidcam-logo.webp,https://www.solidcam.com/,,false,,,solidcam,solidcam,"[{'street': נתניהו יהונתן, 'houseNumber': 5, 'city': אור יהודה, 'lat': 32.0219296, 'lon': 34.8566055}]",false,SolidCAM,760481,,,,,,companies/510824030.json
Rimi,Low-toxicity Products for Pest Control,17,s,logos/rimi_management_and_investment-logo.webp,https://www.rimi.co.il,,false,,,rimi,,"[{'street': גורדון, 'houseNumber': 27, 'city': רעננה, 'lat': 32.1798659, 'lon': 34.864688}]",false,rimi1922,,,,,,,companies/510836075.json
Telrad Networks,A leading developer of advanced wireless communication systems and network management solutions.,18,l,logos/telrad_networks_ltd-logo.webp,https://telrad.com/,,false,,,telrad-networks,telradnetworks,"[{'street': רקפת, 'houseNumber': 2, 'city': שוהם, 'lat': 32.019876477752156, 'lon': 34.96203664588395}]",false,telrad,166322,,,,,,companies/510852643.json
Weka,Enterprise Storage Solutions,14,l,logos/weka.webp,https://www.weka.io/,,false,weka-io,,weka,wekaio,"[{'street': הארבעה, 'houseNumber': 28, 'city': תל אביב, 'lat': 32.07025940211982, 'lon': 34.78648806745106}]",false,WekaIOIsrael,9334204,,,,,,companies/510876857.json
Aitech,"Providing customized, rugged embedded computer systems for extreme environments across air, land, sea, and space.",3,l,logos/aitech_systems-logo.webp,https://aitechsystems.com/,https://aitechsystems.com/careers/,true,aitech,,aitech,AitechDefense,"[{'street': עתירי ידע, 'houseNumber': 1, 'city': כפר סבא, 'lat': 32.1666204, 'lon': 34.9281644}]",true,AitechDefense,110784,aitechsystems/88.004,,,,,companies/510886153.json
Bruker,Bruker is a global leader in scientific instruments and high-performance analytical solutions for molecular research and industrial analysis.,12,xl,logos/bruker_technologies-logo.webp,https://www.bruker.com/,https://www.bruker.com/en/careers.html,true,bruker-corporation,,bruker,bruker,"[{'street': המחקר, 'houseNumber': 6, 'city': מגדל העמק, 'lat': 32.68555395, 'lon': 35.2435595}]",true,bruker.corp,5174388,,,,,,companies/510887797.json
Termokir,Plaster and Adhesive Materials,14,s,logos/termokir_industries_1980-logo.webp,https://termokir.co.il/en/,,false,,termokir,termokir,termokir,[],false,termokir,2883688,,,,,,companies/510890619.json
Kramer Electronics,"Delivering innovative and user-friendly audio-visual solutions that enhance creativity, collaboration, and engagement in meetings and presentations.",18,l,logos/kramer_electronics-logo.webp,https://www.kramerav.com/,,false,kramer-electronics-ltd,,kramer-electronics,kramerElec,"[{'street': הנגב, 'houseNumber': 2, 'city': קריית שדה התעופה, 'lat': 31.986329799161993, 'lon': 34.911436424754974}]",false,,895692,,,,,,companies/510902026.json
Gett,Ground Travel Platform for Businesses,5,l,logos/gett.webp,https://gett.com/intl/,,false,gettaxi,,gett,Gett_UK,"[{'street': שמשון, 'houseNumber': 7, 'city': פתח תקווה, 'lat': 32.095250464263536, 'lon': 34.86345819958739}]",false,Gett.global,1514929,gett/A0.002,,,,,companies/510928591.json
Micronet,Fleet Integration and Workforce Management Solutions,5,m,logos/micronet-logo.webp,https://www.micronet-inc.com/,,false,,,micronet,,"[{'street': המלאכה, 'houseNumber': 16, 'city': ראש העין, 'lat': 32.1088976, 'lon': 34.9653972}]",false,Micronetmict,17769,,,,,,companies/510930787.json
Sapiens International Corporation,Enabling insurance companies to adapt and thrive in a transforming industry.,10,l,logos/sapiens_international_capital-logo.webp,https://sapiens.com/,https://careers.sapiens.com/,true,sapiens,,sapiens,sapiensins,"[{'street': NULL, 'houseNumber': NULL, 'city': חולון, 'lat': 32.00767676856025, 'lon': 34.799425993220844}]",false,SapiensIntCorp,9659,,,,,,companies/510933567.json
Hishtil,"Established in 1974, this global nursery corporation excels in producing and selling vegetables, herbs, seedlings, and young plants for both professional and hobbyist markets.",17,m,logos/hishtil-logo.webp,https://www.hishtil.com/,,false,,,hishtil,,"[{'street': בן יהודה אליעזר, 'houseNumber': NULL, 'city': אשקלון, 'lat': 31.640234, 'lon': 34.5482579}]",false,Hishtil,680287,,,,,,companies/510941784.json
Mavenir,"Mavenir is a leading software company that provides cloud-native solutions for transforming and automating next-generation networks, including 5G.",18,l,logos/mavenir-logo.webp,https://www.mavenir.com/,https://www.mavenir.com/about/careers/,true,mavenir,,mavenir,mavenir,"[{'street': זרחין אלכסנדר, 'houseNumber': 22, 'city': רעננה, 'lat': 32.1932202, 'lon': 34.8827706}]",true,Mavenir,1995,,,,,,companies/510958168.json
Orpak Systems,"Providing innovative, cloud-based systems for fuel retail and fleet management to seamlessly transition into a digital-ready future.",9,l,logos/orpak_systems-logo.webp,https://www.orpak.com/,https://www.orpak.com/careers-orpak-systems/,true,orpak,,orpak-systems,,"[{'street': גרין וורק, 'houseNumber': ""בניין E"", 'city': יקום, 'lat': 32.24494729707674, 'lon': 34.842503615639934}]",false,orpaksys,39516,Orpak/65.001,,,,,companies/510970064.json
Supergum Industries,"Rubber, Plastic, and CBRN Solutions",14,s,logos/supergum_1983_manufacture_of_rubber_plastic_products_ltd-logo.webp,https://supergum.com/home/,,false,supergum,,supergum,,"[{'street': שונצינו, 'houseNumber': 11, 'city': תל אביב - יפו, 'lat': 32.066549, 'lon': 34.787439}]",false,supergum.il,1795387,,,,,,companies/510986938.json
Bar-Magen,Provides advanced solutions for agricultural and environmental protection challenges.,17,s,logos/bar_magen-logo.webp,https://bar-magen.com/,,false,bar-magen-animal-health-nutrition-feed-technology,,bar-magen,agrobarmagen,"[{'street': צבי הנחל, 'houseNumber': 14, 'city': פארק תעשיות עמק חפר, 'lat': 32.4027248, 'lon': 34.8969808}]",false,AGRO-Bar-Magen-Nigeria-Limited-1795547597338860,,,,,,,companies/511024887.json
HUB Cyber Security,"Providing global cybersecurity services for over 30 years, securing information and assets for diverse clientele including Fortune 500 companies, startups, and government agencies.",7,m,logos/hub_cyber_security-logo.webp,https://hubsecurity.com/,,false,hubsecurityio,,hub-cyber-security,hubsecurityio,"[{'street': המסגר, 'houseNumber': 30, 'city': תל אביב - יפו, 'lat': 32.062937, 'lon': 34.785459}]",false,hubsecuresolutions,18444151,,,,,,companies/511029373.json
Rafa Laboratories,Prescription and Over-the-Counter Medicines,12,m,logos/rafa_laboratories_marketing_1984_ltd-logo.webp,https://www.rafa.co.il/en,,false,rafa-labartories,,rafa-laboratories,,"[{'street': הלוי שלמה (מומו), 'houseNumber': 5, 'city': ירושלים, 'lat': 31.8020782, 'lon': 35.2072023}]",false,,1031613,,,,,,companies/511033789.json
Gat Fertilizers,Solid and Liquid Water-soluble Fertilizers,17,xs,logos/gat_fertilizers-logo.webp,https://deshengat.co.il/,,false,gat-fertilizers,,gat-fertilizers,DeshenGat,"[{'street': פלטינה, 'houseNumber': 28, 'city': קריית גת, 'lat': 31.6013563, 'lon': 34.779282}]",false,GatFertilizers,2636038,,,,,,companies/511042913.json
Vidisco,"Providing portable x-ray systems, they support global EOD training and operations across the US Navy and Air Force.",3,s,logos/vidisco-logo.webp,https://vidisco.com/,,false,,,vidisco,Vidisco54,"[{'street': החרושת, 'houseNumber': 32, 'city': אור יהודה, 'lat': 32.0209079, 'lon': 34.8606578}]",false,vidisco.xray,127506,,,,,,companies/511050544.json
Schneider Electric,"Schneider Electric is a global leader in energy management and automation, providing solutions that optimize energy usage, improve efficiency, and ensure sustainability.",17,l,logos/schneider_electric_israel-logo.webp,https://www.se.com/,https://www.se.com/us/en/about-us/careers/overview.jsp,true,schneider-electric,,schneider-electric,SchneiderElec,"[{'street': המעלית, 'houseNumber': 2, 'city': קדימה, 'lat': 32.2745434, 'lon': 34.9199989}]",true,SchneiderElectric,2329,,,,,,companies/511055329.json
Epsilor-Electric Fuel,Providing top-tier military batteries and chargers with unmatched energy density.,15,s,logos/epsilor_electric_fuel-logo.webp,https://www.epsilor.com/,,false,epsilor-electric-fuel,,epsilor,electric_fuel,"[{'street': הסוללה, 'houseNumber': 1, 'city': בית שמש, 'lat': 31.7336358, 'lon': 34.9597796}]",false,,7943022,,,,,,companies/511067480.json
Novu,Open-source Notification Infrastructure for Products,14,s,logos/notifire.webp,https://novu.co/,,false,,,notifire,novuhq,"[{'street': אלטור, 'houseNumber': 813, 'city': רהט, 'lat': 31.39252398099039, 'lon': 34.75535790023588}]",false,,77015871,,,,,,companies/511068173.json
Tvuna Software Industries,Management Tools for Boards of Directors,14,s,logos/tvuna_software_industries_ltd-logo.webp,https://www.tvuna.co.il/,,false,,tvuna-software-industries-boardirector,tvuna-software-industries,,"[{'street': דרך בגין מנחם, 'houseNumber': 11, 'city': רמת גן, 'lat': 32.0862661, 'lon': 34.800174909775976}]",false,tvuna.digital,78425,,,,,,companies/511069874.json
Comda,Security and Access Control Solutions for IT Systems,7,m,logos/comda-logo.webp,https://en.comda.co.il/,https://www.comda.co.il/jobs/,true,comda,,comda,Comda_LTD,"[{'street': דבורה הנביאה, 'houseNumber': 126, 'city': תל אביב - יפו, 'lat': 32.113296, 'lon': 34.842221}]",false,ComdaLTD,54722,,,,,,companies/511076606.json
Meditrac,"Medical Devices for Ambulatory, Nonsurgical Treatment of Spinal Disorders",12,xs,logos/meditrac-logo.webp,https://www.meditrac.co.il,,false,meditrac-ltd,,meditrac-medical-equipment,meditrac_ltd,"[{'street': פנקס, 'houseNumber': 53, 'city': תל אביב - יפו, 'lat': 32.091201, 'lon': 34.790131}]",false,Meditrac.Medical.Equipment,2242803,,,,,,companies/511093189.json
Priority Software,"Delivering advanced, cloud-based ERP and business management solutions to optimize operational efficiency with innovative technology and mobile applications.",6,l,logos/priority_software-logo.webp,https://www.priority-software.com/,,false,prioritysoftware,,Priority-Software,PrioritySw,"[{'street': עמל, 'houseNumber': 2, 'city': ראש העין, 'lat': 32.0970131, 'lon': 34.9105972}]",false,Priority-Software-ERP-Software-769670056428316,89771,,,,,,companies/511124109.json
RBtec Perimeter Security Systems,"Specializing in cutting-edge outdoor perimeter security since 1986, this company ensures the safety of various sites with expertise from seasoned security professionals.",7,s,logos/rbtec-logo.webp,https://www.rbtec.com/,,false,rbtec-perimeter-security-systems,,rbtec,,"[{'street': המתכת, 'houseNumber': 8, 'city': קדימה, 'lat': 32.2754966, 'lon': 34.9222268}]",false,perimeterintrusiondetection,387433,,,,,,companies/511127391.json
Zakai,Tissue Culture Production and Plant Propagation,17,xs,logos/zakai_agricultural_know_how_and_inputs-logo.webp,https://www.zakailtd.co.il/,,false,zakai-agricultural-know-how-inputs-ltd,,zakai-agricultural-know-how-and-inputs,,"[{'street': עצמונה, 'houseNumber': 5, 'city': מעלה אדומים, 'lat': 31.790352408692808, 'lon': 35.34354878140197}]",false,,20158632,,,,,,companies/511155848.json
Auto Cool,They provide premium automatic door operation systems designed for heavy-duty usage and extended operation hours.,15,s,logos/auto_cool_industries_1986-logo.webp,https://autocool.co.il/,,false,,,auto-cool,,"[{'street': גליס, 'houseNumber': 51, 'city': פתח תקווה, 'lat': 32.1045523, 'lon': 34.8930578}]",false,Auto-Cool-IND-LTD-480532802043846,1160242,,,,,,companies/511160855.json
Medic Shoes,Shoes for Circulation Improvement,12,xs,logos/medic_shoes-logo.webp,https://www.medicshoes.com/,,false,,,medic-shoes,medicshoes,"[{'street': גורדון י ל, 'houseNumber': 41, 'city': תל אביב - יפו, 'lat': 32.081873, 'lon': 34.774011}]",false,Medic-Shoes-352010451674685,,,,,,,companies/511164790.json
Applied Materials,Leading provider of materials engineering solutions for global chip and advanced display production.,16,l,logos/applied_materials_israel_ltd-logo.webp,https://www.appliedmaterials.com/,https://www.appliedmaterials.com/us/en/careers.html,true,applied-materials,,applied-materials,applied_il,"[{'street': אופנהיימר, 'houseNumber': 9, 'city': רחובות, 'lat': 31.9111651, 'lon': 34.8080738}]",true,appliedmaterialsisrael,36103307,,,,,,companies/511166373.json
Comsec,A platform that replicates Distributed Denial of Service (DDoS) attacks for testing purposes.,7,l,logos/comsec-logo.webp,https://comsecglobal.com/,,false,comsecglobal,,comsec-consulting,ComsecGlobal,"[{'street': המסגר, 'houseNumber': 30, 'city': תל אביב - יפו, 'lat': 32.062937, 'lon': 34.785459}]",false,comsecgroup,12778,,,,,,companies/511187304.json
I.M.S,Technology for Weighing Moving Trucks and Trains,14,s,logos/i-m-s.webp,https://www.ims-weighing.com/,,false,,,i-m-s,,"[{'street': ענבר, 'houseNumber': 70, 'city': נעלה, 'lat': 31.96248171372057, 'lon': 35.06133194964999}]",false,,452621,,,,,,companies/511204430.json
COPIA Magnificent,Inhibiting Biofilm Formation in Dairy Products,17,xs,logos/magnificent-logo.webp,https://copia-agro.com/portfolio/innovative-bio-stimulant-disposable-device/,,false,,,magnificent,,[],false,,,,,,,,companies/511216475.json
Hazera,Data-driven Seed Breeding and Development,17,l,logos/hazera_1939_ltd-logo.webp,https://www.hazera.com/,https://career.hazera.com/,false,hazera-seeds,,hazera,,"[{'street': ברורים, 'houseNumber': 1, 'city': ברורים, 'lat': 31.76886723599583, 'lon': 34.7808910471617}]",false,hazeracorp,115473,,,,,,companies/511234072.json
Camtek,They specialize in creating advanced metrology and inspection tools alongside software solutions for diverse segments within the semiconductor industry.,16,l,logos/camtek-logo.webp,https://www.camtek.com/,https://www.camtek.com/careers/working-at-camtek/,true,camtek,,camtek,,"[{'street': אזור תעשיה רמת גבריא, 'houseNumber': NULL, 'city': מגדל העמק, 'lat': 32.68780425753594, 'lon': 35.25347500593397}]",false,100027720836161,18016,,,,,,companies/511235434.json
Elgressy Engineering Services,Electrochemical Water Treatment,14,s,logos/elgressy_engineering_services_1987-logo.webp,https://www.elgressy.com/,,false,elgressy,elgressy-engineering-services,elgressy-engineering-services,,"[{'street': המגשימים, 'houseNumber': 16, 'city': פתח תקווה, 'lat': 32.0881419, 'lon': 34.8536011}]",false,,,,,,,,companies/511236317.json
Amdocs,"Leading provider of innovative software and services for communications and media companies, enhancing intelligent operations and delivery.",18,l,logos/amdocs_israel_ltd-logo.webp,https://www.amdocs.com/,https://www.amdocs.com/careers/home,true,amdocs,,amdocs,amdocs,"[{'street': דולב, 'houseNumber': 4, 'city': רעננה, 'lat': 32.201907, 'lon': 34.8810513}, {'street': בריסל, 'houseNumber': 1, 'city': שדרות, 'lat': 31.523018508473697, 'lon': 34.60486161676057}]",false,amdocs,1539,,,,,,companies/511251217.json
Hakohav Valves,"Specializing in durable, low pressure rubber sealed valves for over five decades, Hakohav Valves boasts a global reputation for reliability.",5,xs,logos/hakohav_valves_industries_metal_1987_ltd-logo.webp,https://www.hakohav.com/,,false,hakohav-valves,,hakohav-valves,,"[{'street': אשלגן, 'houseNumber': 8, 'city': קריית גת, 'lat': 31.5922189, 'lon': 34.7809781}]",false,hakohav.valves.5,784839,,,,,,companies/511255846.json
Refinitiv Israel,Offering a comprehensive suite of financial tools for beginners and professionals alike.,10,xl,logos/refinitiv_israel-logo.webp,https://eikon.refinitiv.com/,,false,,,refinitiv,,"[{'street': דרך בגין, 'houseNumber': 121, 'city': תל אביב - יפו, 'lat': 32.072032, 'lon': 34.788987}]",,,,,,,,,companies/511261497.json
Synamedia,A versatile SaaS platform that streamlines OTT service management while enhancing agility and differentiation for streaming services.,8,l,logos/synamedia_technologies_israel-logo.webp,https://www.synamedia.com/,https://www.synamedia.com/careers/,true,synamedia,,synamedia,synamediavideo,"[{'street': הרטום, 'houseNumber': 16, 'city': ירושלים, 'lat': 31.8043239, 'lon': 35.2109994}]",false,SynamediaVideo,33194934,,,,,,companies/511262313.json
Elmo Motion Control,Solutions for motor control and motion technology.,15,l,logos/elmo_motion_control-logo.webp,https://www.elmomc.com/,,false,elmomotioncontrol,,elmo-motion-control,ElmoMotionContr,"[{'street': עמל, 'houseNumber': 60, 'city': פתח תקווה, 'lat': 32.0953971, 'lon': 34.8531501}]",false,ElmoMotionControl1,90187,,,,,,companies/511264343.json
Tosca,A premier provider of reusable packaging solutions with extensive service centers across North America and Europe.,9,xl,logos/tosca-logo.webp,https://www.toscaltd.com/,,false,,,tosca,,[],true,,109082,,,,,,companies/511267445.json
Nature Beta Technologies,Microalgae Cultivation,17,s,logos/nature-beta-technologies.webp,,,false,,,nature-beta-technologies,,"[{'street': אזור התעשיה צפון, 'houseNumber': 8, 'city': NULL, 'lat': NULL, 'lon': NULL}]",false,,,,,,,,companies/511273716.json
Silverbyte,Hotel Management Software,14,m,logos/silverbyte.webp,https://www.silverbyte.com/,,false,,,silverbyte,Optimahms,"[{'street': דרך השלום, 'houseNumber': 17, 'city': נשר, 'lat': 32.76959972768654, 'lon': 35.048145696548275}]",false,OptimaPMS,1900443,,,,,,companies/511279002.json
Viryanet,Mobile Workforce Management,14,m,logos/viryanet.webp,,,false,,,viryanet,viryanet,"[{'street': המרפא, 'houseNumber': 8, 'city': ירושלים, 'lat': 31.803570146540736, 'lon': 35.210073690721}]",false,pages,22758,,,,,,companies/511281354.json
Beeper Communications,Emergency Communication Systems,3,m,logos/beeper_communications_israel-logo.webp,https://he.beepergroup.com,,false,beeper-communications-israel-ltd,beeper-communications,beeper-communications,,"[{'street': ביאליק, 'houseNumber': 147, 'city': רמת גן, 'lat': 32.0816104, 'lon': 34.8148549}]",false,Beeper.Jobs,512663,,,,,,companies/511284283.json
Duma Optronics,"Specializing in laser measurement solutions, they provide advanced tools for optical beam location, power assessment, and precise alignment across diverse applications.",3,s,logos/duma_optronics-logo.webp,https://www.dumaoptronics.com/,,false,,duma-optronics,duma-optronics,,"[{'street': הזית, 'houseNumber': 1, 'city': נשר, 'lat': 32.7682117, 'lon': 35.0419688}]",false,Duma-Optronics-LTD-296387090395945,2613852,,,,,,companies/511284515.json
Elspec Engineering,They provide sophisticated power quality analyzers and meters with continuous waveform recording tailored for renewable energy applications.,17,m,logos/elspec_engineering_ltd-logo.webp,https://www.elspec-ltd.com/,https://www.elspec-ltd.com/careers/,true,elspec-ltd.,,elspec-engineering,,"[{'street': שוהם, 'houseNumber': 4, 'city': קיסריה, 'lat': 32.4891572, 'lon': 34.9061208}]",false,Elspec.Ltd,511471,,,,,,companies/511297541.json
CONTROP Precision Technologies,A leading electro-optics and IR defense company delivers iSea25HD Systems for European Coast Guard SAR missions.,3,l,logos/controp_precision_technologies-logo.webp,https://www.controp.com/,https://www.controp.com/careers/,true,controp-precision-technology-ltd.,,controp,hashtag,"[{'street': החרש, 'houseNumber': 4, 'city': הוד השרון, 'lat': 32.1323509, 'lon': 34.8987146}]",false,CONTROP-Precision-Technologies-Ltd-513337015777853,935901,,,,,,companies/511305682.json
Hydro-Noa,Emergency Rescue Equipment Manufacturer,7,xs,logos/hydro-noa.webp,https://hydronoa.com/,,false,,,hydro-noa,,"[{'street': בית אלפא, 'houseNumber': 2, 'city': תל אביב - יפו, 'lat': 32.06582542016819, 'lon': 34.787375443688006}]",false,,11754613,,,,,,companies/511314387.json
Carmel Olefins,"Israel’s exclusive producer of essential petrochemical raw materials for plastics, offering diverse grades of Polypropylene and Low Density Polyethylene.",9,m,logos/carmel_olefins-logo.webp,https://www.carmel-olefins.co.il/,,false,carmel-olefins,,carmel-olefins,,"[{'street': שד ההסתדרות, 'houseNumber': NULL, 'city': חיפה, 'lat': 32.8076269, 'lon': 35.0635527}]",false,,141284,,,,,,companies/511316903.json
Sarine Technologies,Innovating the diamond industry with advanced AI-based grading and retail solutions.,1,l,logos/sarine_technologies-logo.webp,https://sarine.com/,,false,sarine-technologies,,sarine-technologies,SarineTechLtd,"[{'street': החרש, 'houseNumber': 4, 'city': הוד השרון, 'lat': 32.1323509, 'lon': 34.8987146}]",false,sarinetech,70478,,,,,,companies/511332207.json
Ahava Dead Sea Laboratories,"Offering vegan, paraben-free Dead Sea mineral skincare products designed to recharge, hydrate, and illuminate your skin.",9,m,logos/ahava_dead_sea_laboratories_ltd-logo.webp,https://www.ahava.com/,,false,,,ahava,AHAVA_US,"[{'street': ערבה, 'houseNumber': 1, 'city': לוד, 'lat': 31.9427684, 'lon': 34.8919073}]",false,AHAVA.il,513713,,,,,,companies/511334252.json
Compedia,"With 30+ years of expertise, we create cutting-edge educational tools that engage millions through technology and storytelling.",4,s,logos/compedia_software_and_hardware_development-logo.webp,https://www.compedia.net/,,false,compedia,,compedia,Compedia1988,"[{'street': דרך בן גוריון דוד, 'houseNumber': 2, 'city': רמת גן, 'lat': 32.0952767, 'lon': 34.8214828}]",false,compedialtd,67814,,,,,,companies/511341182.json
Amsys,"Offering Managed Services, Cybersecurity, and IT solutions for SMB and Enterprise clients across the US.",7,xs,logos/amsys_ltd-logo.webp,https://amsysis.com/,,false,amsys-innovative-solutions,,amsys,,"[{'street': מיצרי טירן, 'houseNumber': 5, 'city': ירושלים, 'lat': 31.802546969435497, 'lon': 35.23269036045786}]",false,,,,,,,,companies/511354730.json
NILIT,"A global provider of high-quality nylon production and technology solutions with locations in China, the USA, and Brazil.",16,l,logos/nilit-logo.webp,https://www.nilit.com/,,false,,,nilit,nilit_fibers,"[{'street': התעשיה, 'houseNumber': NULL, 'city': מגדל העמק, 'lat': 32.6868052, 'lon': 35.2465429}]",false,Nilit.Fibers,49797,,,,,,companies/511357196.json
PIMA Electronic Systems,Provider of comprehensive security solutions for commercial and residential markets through manufacturing and distribution of high-quality products.,7,s,logos/pima_electronic_systems_ltd-logo.webp,https://www.pima-alarms.com/,,false,pima-electonics-systems-ltd.?trk=ppro_cprof,,pima-electronic-systems,PimaAlarms,"[{'street': הצורף, 'houseNumber': 5, 'city': חולון, 'lat': 32.0160501, 'lon': 34.8033077}]",false,,435527,,,,,,companies/511372187.json
Padagis,"Offers a wide range of medicinal products including creams, ointments, gels, sprays, patches, and nasal treatments.",12,l,logos/padagis_israel_agencies-logo.webp,https://www.padagis.com/,https://www.padagis.com/careers/,true,padagis-llc,,padagis,,"[{'street': רקפת, 'houseNumber': 1, 'city': שוהם, 'lat': 32.01948610162985, 'lon': 34.961390245419054}]",true,,74292118,,,,,,companies/511386401.json
Unique Software Industries,Payroll Solutions,10,xs,logos/unique_software_industries_ltd-logo.webp,https://site.unq.co.il/,,false,unique-ltd,,uniqe-software-industries,,"[{'street': יפו, 'houseNumber': 216, 'city': ירושלים, 'lat': 31.7890021, 'lon': 35.2053137}]",false,%D7%99%D7%95%D7%A0%D7%99%D7%A7-%D7%AA%D7%A2%D7%A9%D7%99%D7%95%D7%AA-%D7%AA%D7%95%D7%9B%D7%A0%D7%94-%D7%91%D7%A2%D7%9E-305737626121418,28511997,,,,,,companies/511388431.json
Dive In,"A pioneering manufacturer of practical, problem-solving scuba equipment designed for optimal diving experiences.",15,xs,logos/dive_in-logo.webp,https://www.dive1scuba.com/,,false,,,dive-1,,"[{'street': הנשר, 'houseNumber': 16, 'city': אילת, 'lat': 29.5518734, 'lon': 34.9436103}]",,,,,,,,,companies/511389041.json
Advice Electronics,Power Supply Systems,17,s,logos/advice_electronics_ltd-logo.webp,https://www.advice.co.il/en/,https://advice.co.il/blogs/careers,true,advice-electronics,,advice-electronics,,"[{'street': עתירי ידע, 'houseNumber': 16, 'city': כפר סבא, 'lat': 32.1666204, 'lon': 34.9281644}]",false,AdviceG,2989460,,,,,,companies/511393159.json
HADRAN,Automated Labeling System for Fruit and Vegetables,17,xs,logos/hadran_citrus_products-logo.webp,https://hurstcanada.ca/hadran-labelers,,false,,,hadran-advanced-labeling-solutions,,"[{'street': אזור תעשיה, 'houseNumber': NULL, 'city': רחובות, 'lat': 31.889247992222792, 'lon': 34.7827127167572}]",false,,,,,,,,companies/511393605.json
Hi-G-Tek,Wireless Solutions for Tracking and Securing Cargo and Assets,5,s,logos/hi-g-tek.webp,https://www.higtek.com/,,false,,,hi-g-tek,higteksolutions,"[{'street': החרושת, 'houseNumber': 16, 'city': אור יהודה, 'lat': 32.02119735193885, 'lon': 34.862627808146975}]",false,higtek,1183138,,,,,,companies/511395386.json
Galcon,Control Systems for Water Infrastructures,17,m,logos/galcon.webp,https://www.galcon.co.il/,,false,,,galcon,,"[{'street': המייסדים, 'houseNumber': 33, 'city': גיבתון, 'lat': 31.887808951683997, 'lon': 34.80029868499431}]",false,Galcon-Computerized-Control-Systems-233034380109441,1200869,,,,,,companies/511402588.json
Novo Nordisk,"Founded in 1923 and based in Denmark, this global healthcare leader focuses on driving change to combat diabetes.",12,xl,logos/novo_nordisk_ltd-logo.webp,https://www.novonordisk.com/,https://www.novonordisk.com/careers.html,true,novo-nordisk,,novo-nordisk,novonordisk,"[{'street': עתירי ידע, 'houseNumber': 1, 'city': כפר סבא, 'lat': 32.1666204, 'lon': 34.9281644}]",true,novonordisk,2227,,,,,,companies/511411142.json
Kapro,"We offer precision-engineered spirit levels, laser levels, and marking tools to deliver exceptional accuracy and reliability.",15,s,logos/kapro_industries_ltd-logo.webp,https://kapro.com/,,false,,,kapro,kaprotools,[],false,kaprotoolsco,33255427,,,,,,companies/511414666.json
Alarum Technologies,A leading global provider specializing in internet access and web data collection solutions.,7,s,logos/alarum_technologies-logo.webp,https://alarum.io/,,false,alarum-technologies,,alarum-technologies,i,"[{'street': הארבעה, 'houseNumber': 30, 'city': תל אביב - יפו, 'lat': 32.070501, 'lon': 34.785145}]",false,,,,,,,,companies/511418477.json
Grin,Teledental Platform for Connecting Patients with Orthodontists,12,s,logos/grin_mendel_and_sons-logo.webp,https://get-grin.com/,https://www.get-grin.com/careers,true,,,grin,get_grin,"[{'street': האורג, 'houseNumber': 23, 'city': נתניה, 'lat': 32.3188664, 'lon': 34.8717241}]",false,getgrinortho,64879643,,,,,,companies/511428716.json
Biovac,"A pioneering Israeli firm since 1989, specializing in the R&D, manufacturing, and distribution of veterinary vaccines, preparations, supplements, and disinfectants.",12,s,logos/biovac-logo.webp,https://biovac.co.il/,,false,,,biovac,,"[{'street': האילן, 'houseNumber': 30, 'city': אור עקיבא, 'lat': 32.5166913, 'lon': 34.9222881}]",false,,71707259,,,,,,companies/511430985.json
Spetrotec,"Specializing in advanced telematics, this company develops solutions for vehicle tracking, security, fleet management, and driver safety.",5,s,logos/spetrotec_ltd-logo.webp,https://www.spetrotec.com/,,false,spetrotec,,spetrotec,,"[{'street': מבוא קדם, 'houseNumber': 5, 'city': הוד השרון, 'lat': 32.1557398, 'lon': 34.9200655}]",false,iwatcherapp,156623,,,,,,companies/511431918.json
Fluence,"With decades of experience, the company provides innovative and affordable water treatment and reuse solutions globally.",17,l,logos/fluence_water_israel-logo.webp,https://www.fluencecorp.com/,https://fluenceenergy.com/energy-storage-careers/,true,,,fluence-corporation,fluencecorp,"[{'street': הנפח, 'houseNumber': 16, 'city': כרמיאל, 'lat': 32.9223178, 'lon': 35.3225045}]",false,FluenceCorporation,18150486,,,,,,companies/511469512.json
Docomotion,An advanced app simplifies document creation on Salesforce for businesses handling high volumes of paperwork.,14,s,logos/docomotion-logo.webp,https://www.docomotion.com/,,false,,,docomotion,docomotion,"[{'street': יד חרוצים, 'houseNumber': 31, 'city': נתניה, 'lat': 32.2797087, 'lon': 34.8638687}]",false,DocomotionLTD,4856770,,,,,,companies/511469777.json
Meprolight,"A top-tier producer of optics, handgun, shotgun, and thermal sights with ISO and MIL certification.",3,m,logos/meprolight_1990-logo.webp,https://www.meprolight.com/,,false,,,meprolight,meprolight,"[{'street': ההדס, 'houseNumber': 4, 'city': אור עקיבא, 'lat': 32.5190875, 'lon': 34.9199724}]",false,meprolightofficial,254471,,,,,,companies/511472177.json
Cadence Design Systems,"Cadence Design Systems is a leading provider of electronic design automation (EDA) and intelligent system design solutions, enabling customers to create innovative and complex electronics products.",16,m,logos/cadence_design_systems_israel-logo.webp,https://www.cadence.com,,false,cadence-design-systems,,cadence-design-systems,Cadence,"[{'street': ברט אהרון, 'houseNumber': 18, 'city': פתח תקווה, 'lat': 32.101395, 'lon': 34.8613485}]",true,CadenceDesignSystemsLtd,2157,,,,,,companies/511473662.json
Medoc,"A pioneering company in quantitative sensory testing for three decades, offering FDA-approved and CE-certified devices.",12,m,logos/medoc_ltd-logo.webp,https://www.medoc-web.com/,,false,,,medoc,MedocMedicalSys,"[{'street': הדקל, 'houseNumber': 1, 'city': רמת ישי, 'lat': 32.7061453, 'lon': 35.1728937}]",false,Medoc-Ltd-1606885802869196,132371,,,,,,companies/511483927.json
Surecomp,"A world leader in trade finance software and solutions, offering SWIFT certified options both on the cloud and on-premise for banks and corporations.",10,l,logos/surecomp_development-logo.webp,https://surecomp.com/,https://surecomp.com/careers/,true,surecomp,surecomp,surecomp,surecomp,"[{'street': עתירי ידע, 'houseNumber': 9, 'city': כפר סבא, 'lat': 32.1620348, 'lon': 34.9337429}]",false,,166207,Surecomp/24.00E,,,,,companies/511489601.json
SodaStream,"Create fresh, sparkling water at home with our range of water makers, bottles, flavors, and CO2 cylinders.",9,l,logos/sodastream_industries-logo.webp,https://sodastream.com/,,false,sodastream-international-ltd-,,sodastream,sodastreamusa,"[{'street': עתיר ידע, 'houseNumber': 1, 'city': כפר סבא, 'lat': 32.1620348, 'lon': 34.9337429}]",false,SodaStream,1000151,sodastream/40.008,,,,,companies/511491979.json
Nuance Communications,"Nuance Communications specializes in AI-driven speech and imaging solutions, empowering businesses to enhance customer interactions and streamline operations.",1,xl,logos/nuance_communications_israel-logo.webp,https://www.nuance.com/,https://www.nuance.com/about-us/careers.html,true,nuance-communications,,nuance-communications,nuanceinc,"[{'street': החרש, 'houseNumber': 4, 'city': הוד השרון, 'lat': 32.1323509, 'lon': 34.8987146}]",true,,3719,,,,,,companies/511498149.json
Datatex,Leading global provider of IT software solutions for the textile and apparel industry with a presence in 45 countries across 5 continents.,14,l,logos/datatex-logo.webp,https://datatex.com/,,false,datatex,,datatex,datatex_erp,"[{'street': אודם, 'houseNumber': 3, 'city': פתח תקווה, 'lat': 32.0896507, 'lon': 34.8577193}]",true,datatexErp,51728,,,,,,companies/511509846.json
Biological Industries,"With over 35 years of expertise, this company specializes in developing and manufacturing general and specialty cell culture media.",12,m,logos/biological_industries_israel_beit_haemek-logo.webp,https://www.bioind.com/,,false,,,biological-industries,bio_industries,[],false,bioind,1902252,,,,,,companies/511513145.json
IBM,"A century-long leader in technological innovation, specializing in AI, automation, and hybrid cloud solutions for businesses.",1,l,logos/ibm_global_services_israel-logo.webp,https://www.ibm.com/,https://www.ibm.com/careers,true,ibm,,ibm,,"[{'street': שלמה, 'houseNumber': 94, 'city': פתח תקווה, 'lat': 32.0775426, 'lon': 34.9030299}]",true,IBM,,,,,,,companies/511515603.json
Exsys,Software Development and Integration,14,s,logos/exsys_ltd-logo.webp,https://www.exsys.co.il/,,false,exsysautomation,,exsys,,"[{'street': הנגר, 'houseNumber': 8, 'city': כפר סבא, 'lat': 32.1770544, 'lon': 34.9284708}]",false,exsyspk,114096,,,,,,companies/511519357.json
Tefen Flow and Dosing Technologies,Dedicated to the efficient and sustainable operation of critical industries.,17,s,logos/tefen_flow_and_dosing_technologies-logo.webp,https://tefentech.com/,,false,tefen-flow-and-dosing-technologies-ltd.,,tefen,,[],false,TEFEN-864219263627226,10200713,,,,,,companies/511520959.json
Kamada,Therapeutics Made from Blood Plasma Proteins.,12,l,logos/kamada-logo.webp,https://www.kamada.com/,,false,kamada,,kamada,kamada_pharma,"[{'street': הולצמן חיים, 'houseNumber': 2, 'city': רחובות, 'lat': 31.915662249999997, 'lon': 34.807746809143225}]",false,,117855,,,,,,companies/511524605.json
Morel,Audio Drivers and Speakers,8,xs,logos/morel_il_ltd-logo.webp,https://www.morelhifi.com,,false,,,morel,MorelHiFi,"[{'street': המזמרה, 'houseNumber': 17, 'city': נס ציונה, 'lat': 31.9219246, 'lon': 34.7941427}]",false,MorelHiFi,5297372,,,,,,companies/511535973.json
Mida Computers,Software Solutions for Enterprise Planning and Management,14,s,logos/mida_computers_software_solutions_g_d-logo.webp,https://www.mida.co.il/,,false,,,mida-computers,,"[{'street': לוי יוסף, 'houseNumber': 23, 'city': קריית ביאליק, 'lat': 32.86720648379817, 'lon': 35.09635509795458}]",false,ADAMHRMS,1050046,,,,,,companies/511543308.json
Orca Dental AI,"Providing dental professionals with AI-driven tools for enhanced diagnostics, treatment planning, and clinical predictions.",12,s,logos/orca_dental_ai-logo.webp,https://www.orca-ai.com/,,false,orca-dental-ai,orca-dental-ai,orca-dental-ai,,"[{'street': דולב, 'houseNumber': 4, 'city': רעננה, 'lat': 32.201907, 'lon': 34.8810513}]",false,ORCADentalAI,18220671,,,,,,companies/511554818.json
Tap Systems,Bluetooth-Enabled Wearable Keyboard.,14,s,logos/tap_systems-logo.webp,https://www.tapwithus.com/,,false,tap-with-us,tap-systems-inc,tap-systems,tapwithus,"[{'street': התומר, 'houseNumber': 8, 'city': אבן יהודה, 'lat': 32.2748136, 'lon': 34.8911666}]",false,tapwithus,10370354,,,,,,companies/511559130.json
SATEC,"Specializing in energy management, we offer comprehensive solutions like power meters, quality monitoring, and billing platforms.",17,m,logos/satec_heating_elements_1991-logo.webp,https://www.satec-global.com/,,false,satec-ltd.,,satec,,"[{'street': המרפא, 'houseNumber': 7, 'city': ירושלים, 'lat': 31.8023686, 'lon': 35.2111443}]",false,SATEC.Global,889073,,,,,,companies/511565491.json
GraphiTech,"Founded in 1991, this company specializes in creating precise software and engineering solutions for inspection and scanning applications.",15,s,logos/graphitech_ltd-logo.webp,https://www.graphitech.net/,,false,graphitech,,graphitech,,[],false,GraphiTech-1251305361551854,692319,,,,,,companies/511573115.json
Hisense,Health Monitoring Technology,12,s,logos/hisense_ltd-logo.webp,https://www.hisense.co.il,,false,,,hisense-medical,BabySenseLLC,[],false,BabysenseMonitors,7191970,,,,,,companies/511583577.json
Ivory Software Systems,Core Capital Markets Platform for Banks,10,s,logos/ivory_software_systems-logo.webp,https://www.ivory-sw.com,,false,,,ivory-software-systems,,"[{'street': ריב""ל, 'houseNumber': 7, 'city': תל אביב - יפו, 'lat': 32.062831, 'lon': 34.782228}]",false,,4395322,,,,,,companies/511599409.json
Lipo,Micro-mobility Vehicles in the Urban Public Space,5,xs,logos/lipo.webp,,,false,,,lipo,,"[{'street': יפה נוף, 'houseNumber': 39, 'city': חיפה, 'lat': 32.813690499611326, 'lon': 34.98297585727803}]",false,,77632856,,,,,,companies/511605610.json
Waves Audio,"Global leader in audio plugins, software, and hardware for various professional music and sound applications.",8,l,logos/waves_audio-logo.webp,https://www.waves.com/,,false,waves,,waves,WavesAudioLtd,"[{'street': דרך בגין, 'houseNumber': 132, 'city': תל אביב - יפו, 'lat': 32.074196, 'lon': 34.7921772}]",false,waves,16901,,,,,,companies/511607046.json
Gaash Lighting,"A prominent Israeli firm established in 1964, delivering comprehensive lighting solutions for technical and professional sectors.",13,s,logos/gaash_lighting_products_ltd-logo.webp,https://www.gaashlighting.com/,,false,,,gaash-lighting,,[],false,GAASHLIGHTINGCONTROL,2478114,,,,,,companies/511611303.json
RadView,"Harnessing AI and JavaScript, this solution revolutionizes load testing with smart correlation and unparalleled power.",1,s,logos/radview_software-logo.webp,https://www.radview.com/,,false,,,radview,RadViewSoftware,"[{'street': עמל, 'houseNumber': 13, 'city': ראש העין, 'lat': 32.09668, 'lon': 34.9066455}]",false,RadView,17110,,,,,,companies/511627952.json
El-Mul,Electron and Ion Particle Detection Solutions,14,s,logos/el-mul.webp,https://www.el-mul.com/,,false,,,el-mul,,"[{'street': המדע, 'houseNumber': 12, 'city': רחובות, 'lat': 32.16715318839804, 'lon': 34.81336731542285}]",false,,152540,,,,,,companies/511635450.json
Servotronix Motion Control,高创运动控制公司是一家专业研、产、销伺服系统及控制系统等产品的综合解决方案供应商，旗下拥有SERVOTRONIX高创及DORNA两个品牌，高创与东菱为设备制造商和自动化系统 ...,15,m,logos/servotronix_motion_control_ltd-logo.webp,https://servotronix.cn/,,false,servotronix,servotronix-motion-control,servotronix-motion-control-ltd,servotronix,"[{'street': יגיע כפיים, 'houseNumber': 21, 'city': פתח תקווה, 'lat': 32.0966598, 'lon': 34.854771346954784}]",false,servotronixmc,1656227,,,,,,companies/511638538.json
Paradigma Systems,Information Systems for Long-term Healthcare Facilities,12,xs,logos/paradigma_systems-logo.webp,https://www.paradigmacare.com/eng,,false,paradigm-systems-inc.,,paradigma-systems,,"[{'street': המלאכה, 'houseNumber': 14, 'city': נתניה, 'lat': 32.2788892, 'lon': 34.858196076704104}]",false,,,,,,,,companies/511649303.json
Radvision,Unified Visual Communications Solutions,14,l,logos/radvision.webp,,,false,,,radvision,,"[{'street': ולנברג ראול, 'houseNumber': 24, 'city': תל אביב - יפו, 'lat': 32.11140708305951, 'lon': 34.83889982809149}]",false,,7245,,,,,,companies/511651812.json
ZIV Systems,ERP Solutions for Construction and Real Estate Management,14,s,logos/ziv_systems_for_construction_management_msd_south_ltd-logo.webp,https://www.ziv.co.il,,false,,,ziv-systems,ZIVSystems,"[{'street': הרטום, 'houseNumber': 19, 'city': ירושלים, 'lat': 31.8041398, 'lon': 35.2105915}]",false,ZivSystems,562933,,,,,,companies/511664666.json
AMICELL - Amit Industries,"Specialists in designing and manufacturing custom and standard battery packs, portable power systems, and charging solutions, leveraging extensive expertise in alternative energy.",17,s,logos/amicell_amit_industries-logo.webp,https://www.amicell.co.il/,,false,amit-industries,,amicell-amit-industries,,"[{'street': היהלומים, 'houseNumber': 19, 'city': אשדוד, 'lat': 31.81647435, 'lon': 34.659967991985226}]",false,Amicell-Amit-Industries-Ltd-274383302701219,1083773,,,,,,companies/511665994.json
ST Microelectronics,"A thriving online community offering solutions, discussions, and courses to enhance your design skills.",16,s,logos/st_microelectronics-logo.webp,https://www.st.com,https://www.st.com/content/st_com/en/about/careers.html,true,,,st-microelectronics,ST_World?ref_src=twsrc%5Egoogle%7Ctwcamp%5Eserp%7Ctwgr%5Eauthor,"[{'street': גיבורי ישראל, 'houseNumber': 7, 'city': נתניה, 'lat': 32.2787263, 'lon': 34.8610014}]",true,STMicroelectronics.NV,1618,,,,,,companies/511679995.json
Biconix,"A business partner specializing in delivering custom solutions through IBM, Anaplan, and Clarizen technology platforms.",14,s,logos/biconix_international_ltd-logo.webp,https://biconix-intl.com/,,false,biconix,,biconix,,"[{'street': המנופים, 'houseNumber': 10, 'city': הרצליה, 'lat': 32.1598236, 'lon': 34.8080456}]",false,,112043,,,,,,companies/511689952.json
Oramir Semiconductor Equipment,Laser Cleaning Technologies for Semiconductor Wafers,14,s,logos/oramir-semiconductor-equipment.webp,,,false,,,oramir-semiconductor-equipment,,"[{'street': NULL, 'houseNumber': NULL, 'city': NULL, 'lat': NULL, 'lon': NULL}]",false,,,,,,,,companies/511696825.json
NESS,Neuromuscular Electrical Stimulation Systems,12,s,logos/ness.webp,,,false,,,ness,,"[{'street': משכית, 'houseNumber': 27, 'city': הרצליה, 'lat': 32.16339496307645, 'lon': 34.8108076493372}]",false,,,,,,,,companies/511698219.json
Flex,A premier manufacturing partner providing end-to-end services for streamlined product lifecycles.,15,xl,logos/flex_systems_ltd-logo.webp,https://flex.com/,https://flex.com/careers,true,flexintl,,flextronics,flextronics,"[{'street': האלה, 'houseNumber': NULL, 'city': צורית, 'lat': 32.8112786, 'lon': 35.4767354}]",true,flexIL,2279,,,,,,companies/511701534.json
Lumen,"A pioneering portable device that measures, tracks, and analyzes your metabolism to determine if you're burning fats or carbs for energy.",12,l,logos/lumen_capital-logo.webp,https://www.lumen.me/,https://jobs.lumen.com/,true,lumen-me,,lumen,LumenMetabolism,"[{'street': לשם, 'houseNumber': 24, 'city': שוהם, 'lat': 31.9965335, 'lon': 34.9447447}]",false,Lumen.me,10582911,,,,,,companies/511702276.json
Invenco by GVR,Global provider of secure payment processing and customer engagement solutions.,10,xl,logos/invenco_by_gvr-logo.webp,https://www.invenco.com/,https://www.invenco.com/careers,true,invenco-by-gvr,,gilbarco-veeder-root,,"[{'street': גרין וורק, 'houseNumber': NULL, 'city': יקום, 'lat': 32.24498359401486, 'lon': 34.84254653129423}]",,,,,,,,,companies/511702714.json
RAD,"They offer data communication and telecom access solutions for service providers and critical infrastructure networks, specializing in Carrier Ethernet access.",18,l,logos/rad_biomed_accelerator-logo.webp,https://www.rad.com/,https://radtech.ca/en/job/,true,rad-data-communications,,rad-technologies,raddatacomms,"[{'street': ולנברג ראול, 'houseNumber': 24, 'city': תל אביב - יפו, 'lat': 32.111205, 'lon': 34.8388694}]",false,RAD.Data.Communications,7369,,,,,,companies/511703779.json
Nanomotion,"Specializing in motion systems and piezo motor components, this company caters to a wide range of industries with its innovative products.",15,m,logos/nanomotion_ltd-logo.webp,https://www.nanomotion.com/,,false,nanomotion,,nanomotion,,"[{'street': הכרמל, 'houseNumber': 6, 'city': יקנעם עילית, 'lat': 32.6613363, 'lon': 35.1045936}]",false,,75836,,,,,,companies/511708414.json
B.J.M. Laboratories,"A global leader in in-house developed dental materials, supplying state-of-the-art products to multinational brands for daily clinical use.",12,s,logos/b_j_m_laboratories-logo.webp,https://www.bjmlabs.com/,https://www.bjmlabs.com/careers,true,,,b-j-m-laboratories,,"[{'street': הסדנא, 'houseNumber': 12, 'city': אור יהודה, 'lat': 32.0335253, 'lon': 34.8503725}]",false,,74391190,,,,,,companies/511708968.json
Control Applications,Electrical Metering and Monitoring Systems,14,s,logos/control_applications_c_a-logo.webp,https://www.elnet-meter.com/,,false,control-applications,,control-applications,,"[{'street': הברזל, 'houseNumber': 2, 'city': תל אביב - יפו, 'lat': 32.106471, 'lon': 34.835657}]",false,ElnetCA,,,,,,,companies/511718413.json
Alvarion Technologies,Autonomous Wi-Fi Solutions,14,l,logos/alvarion-logo.webp,https://www.supercom.com/alvarion,,false,alvarion-ltd,alvarion,alvarion,Alvarion4G,"[{'street': קלוזנר, 'houseNumber': 10, 'city': רמלה, 'lat': 31.9210216, 'lon': 34.8764925}]",false,alvariontech,6400,,,,,,companies/511722316.json
Qualcomm,Empowering global connectivity through advanced mobile technology innovations.,18,l,logos/qualcomm_israel_ltd-logo.webp,https://www.qualcomm.com/,https://www.qualcomm.com/company/careers,true,qualcomm,,qualcomm,Qualcomm,"[{'street': חת נחום, 'houseNumber': 1, 'city': טירת כרמל, 'lat': 32.7845356, 'lon': 34.9577195}]",true,QualcommIsrael,2017,,,,,,companies/511724593.json
Radix Technologies,"Innovative tech company with a global presence and headquarters in Israel, specializing in advanced research and development.",3,s,logos/radix_technologies-logo.webp,https://www.radix-int.com/,,false,radix-technologies-ltd.,,radix,radixtech,"[{'street': שרון אריאל, 'houseNumber': 1, 'city': אור יהודה, 'lat': 32.0219471, 'lon': 34.8582471}]",false,pages,775425,,,,,,companies/511728503.json
Gidel,"Specializing in real-time, low latency imaging solutions, Gidel provides advanced frame grabbers and FPGA processing for multi-camera systems.",15,s,logos/gidel_ltd-logo.webp,https://gidel.com/,,false,,,gidel,,"[{'street': האילן, 'houseNumber': 2, 'city': אור עקיבא, 'lat': 32.5149181, 'lon': 34.9227226}]",false,,152867,,,,,,companies/511763591.json
Hessegim Software,Marketing Fixed-income Analytics and Algo-trading Systems,10,xs,logos/hessegim_software-logo.webp,https://www.triple-a.co.il,,false,hessegim-software,,hessegim-software,PrafisAnalytics,"[{'street': מצדה, 'houseNumber': 9, 'city': בני ברק, 'lat': 32.0914266, 'lon': 34.8251051}]",false,,17918409,,,,,,companies/511764946.json
Compugen,A biotech firm advancing drug discovery and development through its innovative predictive computational technology.,12,m,logos/compugen_ltd-logo.webp,https://cgen.com/,https://www3.compugen.com/en-ca/careers,true,compugen-ltd,,compugen,CompugenLtd,"[{'street': הרוקמים, 'houseNumber': 26, 'city': חולון, 'lat': 32.0077054, 'lon': 34.80060304320986}]",false,,753626,,,,,,companies/511779639.json
Applied Spectral Imaging,Providing advanced computer-aided solutions for digital cytogenetics and pathology across brightfield and fluorescence applications.,12,m,logos/applied_spectral_imaging_ltd-logo.webp,https://spectral-imaging.com/,,false,appliedspectralimaging,,applied-spectral-imaging,ASImaging,"[{'street': הכרמל, 'houseNumber': 2, 'city': יקנעם עילית, 'lat': 32.6613363, 'lon': 35.1045936}]",false,ASImaging,62375,,,,,,companies/511782880.json
Zamir Recognition Systems,zamir - onvif. zamir - ROHS. Zamir - FC. Zamir - CE. zamir - RoadView. קודם. הבא. Copyright zamir recognition systems © 2024.,15,s,logos/zamir_recognition_systems-logo.webp,https://www.zamir.co.il/,,false,zamir-recognition-systems-ltd-,,zamir-recognition-systems,,"[{'street': הגן הטכנולוגי, 'houseNumber': 1, 'city': ירושלים, 'lat': 31.75025875, 'lon': 35.18612507516873}]",false,alprtechnology,711543,,,,,,companies/511798589.json
Univo Pharmaceuticals,Medical Cannabis Products,12,s,logos/univo_pharmaceuticals-logo.webp,https://univopharma.com/,,false,,,d-pharm,,"[{'street': החרש, 'houseNumber': 20, 'city': אשקלון, 'lat': 31.6364197, 'lon': 34.5497579}]",false,,12614994,,,,,,companies/511799835.json
Sling,Cyber Insurance for Organizations,7,s,logos/sling-logo.webp,https://www.slingscore.com/,,false,sling-score,,sling-1,,"[{'street': מנחם בגין, 'houseNumber': 52, 'city': תל אביב - יפו, 'lat': 32.063947383479075, 'lon': 34.78155562886322}]",false,,74986121,,,,,,companies/511803629.json
Nova Measuring Instruments,Optical Metrology for Semiconductor Manufacturing.,16,l,logos/nova_measuring_instruments-logo.webp,https://www.novami.com/,https://www.novami.com/careers/working-at-nova/,true,nova-ltd.,,nova-measuring-instruments,nova_nvmi,"[{'street': פייקס דוד, 'houseNumber': 5, 'city': רחובות, 'lat': 31.9159391, 'lon': 34.8103557}]",false,Nova.Ltd,11129,,,,,,companies/511812463.json
Unique Technology,Automatic Meter Reading for Electrical Systems,17,xs,logos/unique_technology_1993_ltd-logo.webp,https://www.uniquesmartmeters.com/,,false,u-techsupports,,unique-technology,,"[{'street': היוזמים, 'houseNumber': 6, 'city': אור יהודה, 'lat': 32.0231866, 'lon': 34.8638754}]",false,,,,,,,,companies/511830358.json
Wiv Club,"Focused on enhancing public health, agriculture, sustainable development, and safety strategies.",17,xs,logos/wiv_club-logo.webp,https://english.whiov.cas.cn/,,false,,,wiv,,"[{'street': השלושה, 'houseNumber': 2, 'city': תל אביב - יפו, 'lat': 32.0617382, 'lon': 34.7882304}]",,,,,,,,,companies/511834533.json
Shina Systems,"Specializes in advanced medical imaging technology and diagnostics, including 4D cardiac analysis, 3D mammography, and virtual reality applications for comprehensive patient care.",12,s,logos/shina_systems_ltd-logo.webp,https://www.shinasystems.com/,,false,shinasystems,,shina-systems,shinasystems,"[{'street': האשל, 'houseNumber': 7, 'city': קיסריה, 'lat': 32.4728942, 'lon': 34.940184}]",false,,286384,,,,,,companies/511841827.json
MicroTag Temed,"Offering unmatched fraud resistance through MRI-based technology, our solution has proven 17-year field reliability and operational simplicity.",7,xs,logos/micro_tag_temed-logo.webp,https://microtag-temed.com/,,false,microtag-temed,,microtag-temed,,"[{'street': ד.נ ערבה, 'houseNumber': 1, 'city': דימונה, 'lat': 31.0686612, 'lon': 35.0366482}]",false,,1894134,,,,,,companies/511847113.json
Metzer Group,"A trailblazer in designing and producing advanced infrastructure, construction, and irrigation systems.",17,m,logos/metzerplas_holdings-logo.webp,https://www.metzer-group.com/,,false,metzer,,metzerplas,,[],false,metzerplas,28174777,,,,,,companies/511847261.json
Nirlat,"Paint, Sealant, and Coating Manufacturer",14,l,logos/nirlat-logo.webp,https://en.nirlat.com/,,false,,,nirlat,,[],false,nirlat,81631678,,,,,,companies/511851248.json
Pazkar,Waterproofing and Insulation Products Manufacturer,14,m,logos/pazkar_marketing_1993_ltd-logo.webp,https://www.pazkar.co.il/en/,,false,,,pazkar,,"[{'street': ההדסים, 'houseNumber': 2, 'city': עפולה, 'lat': 32.613145042952205, 'lon': 35.28804613265434}]",false,PazkarWaterproofing,80894649,,,,,,companies/511856072.json
Biosense Webster,Diagnosis and Treatment of Cardiac Arrhythmias,12,l,logos/biosense_webster_israel_ltd-logo.webp,https://www.biosensewebster.com,,false,biosensewebster,,biosense-webster,biosensewebster,"[{'street': התנופה, 'houseNumber': 4, 'city': יקנעם עילית, 'lat': 32.66791475, 'lon': 35.10722320481222}]",false,biosensewebsterjnj,1194,,,,,,companies/511859134.json
Xerox,Explore a wide range of Xerox printing products and accessories online with free shipping on supplies.,14,m,logos/xerox_israel_ltd-logo.webp,https://www.xerox.com/,https://www.xerox.com/en-us/jobs,true,,,xerox,Xerox,"[{'street': המגשימים, 'houseNumber': 20, 'city': פתח תקווה, 'lat': 32.0881419, 'lon': 34.8536011}]",true,XeroxCorp,1373,,,,,,companies/511873705.json
Ofil,"Specializing in non-destructive testing, this company offers cameras that detect early electrical faults for preventive maintenance in high and medium voltage infrastructure.",15,s,logos/ofil-logo.webp,https://ofilsystems.com/,,false,,,ofil,ofil,"[{'street': אינשטיין, 'houseNumber': 16, 'city': נס ציונה, 'lat': 31.9155629, 'lon': 34.8062323}]",false,,714927,,,,,,companies/511876765.json
Betaland Software Engineering,Enterprise Software System Builder,14,xs,logos/betaland_software_engineering_ltd-logo.webp,https://www.beta-land.com/,,false,,betaland-software-engineering,betaland,,"[{'street': הרטום, 'houseNumber': 9, 'city': ירושלים, 'lat': 31.8023945, 'lon': 35.2132096}]",false,,,,,,,,companies/511879736.json
ArtwareSoft,"A tech company creating advanced web UX tools with global deployment, serving diverse industries, and offering jBart, a visual tool for building web widgets.",14,xs,logos/artware-logo.webp,https://www.artwaresoft.com/,,false,,,artware,,"[{'street': הכלנית, 'houseNumber': 15, 'city': כוכב יאיר, 'lat': 32.2251307, 'lon': 35.003459}]",false,,300918,,,,,,companies/511880270.json
Pharma Sept,A seasoned manufacturer and distributor of customizable sterile surgical equipment and robotics covers for top medical centers globally.,12,xs,logos/pharma_sept-logo.webp,https://www.pharmasept.com/,,false,pharmasept,,pharma-sept,,"[{'street': גרושקביץ, 'houseNumber': 5, 'city': קריית מוצקין, 'lat': 32.8289065, 'lon': 35.0728576}]",false,,79004558,,,,,,companies/511881146.json
Collega,Connects Young Professionals to Job Opportunities,14,xs,logos/collega_ltd-logo.webp,https://colle.ga,,false,,,collega,,"[{'street': אדם, 'houseNumber': 41, 'city': ירושלים, 'lat': 31.7490202, 'lon': 35.2292361}]",false,,92829368,,,,,,companies/511882656.json
AccuBeat,"A global leader in advanced timing solutions, specializing in Rubidium oscillators, Time Servers, and GPS-disciplined atomic clocks with anti-spoofing technology.",18,s,logos/accubeat_ltd-logo.webp,https://www.accubeat.com/,,false,accubeat,accubeat,accubeat,,"[{'street': המרפא, 'houseNumber': 5, 'city': ירושלים, 'lat': 31.8018278, 'lon': 35.211529}]",false,,657779,,,,,,companies/511884538.json
Port,Internal Developer Portal,14,m,logos/port_2_port_israel-logo.webp,https://www.getport.io/,,false,,,port,tweetsbyport,"[{'street': פרידמן שרגא, 'houseNumber': 5, 'city': תל אביב - יפו, 'lat': 32.118111, 'lon': 34.791678}]",false,,81296713,,,,,,companies/511887556.json
Harmonic,"Industry leading solution for the transformation for video, cable and media companies, with smarter, faster, and simpler video streaming and broadband services.",8,m,logos/harmonic_lightwaves_israel_ltd-logo.webp,https://www.harmonicinc.com/,https://careers.harmonicinc.com/,true,harmonic,,harmonic,HarmonicInc,"[{'street': אלון התבור, 'houseNumber': 19, 'city': קיסריה, 'lat': 32.4763255, 'lon': 34.947278}]",true,harmonicisrael,5918,,,,,,companies/511889107.json
ESP,Electricity Faults Predicting,14,xs,logos/esp.webp,https://www.esp-protect.com,,false,,,esp,,"[{'street': אודם, 'houseNumber': 4, 'city': פתח תקווה, 'lat': 32.09046061535651, 'lon': 34.85758883710227}]",false,ESP-Electrical-Systems-Protection-179355612999977,35701850,,,,,,companies/511890444.json
Ericom Software,"A leading cloud-based Zero Trust cybersecurity provider, they protect organizations against advanced threats with ZTEdge™ SSE.",7,m,logos/ericom_software_ltd-logo.webp,https://www.ericom.com/,,false,ericom-software,,ericom-software,Ericom_Software,"[{'street': שדרות דם המכבים, 'houseNumber': 28, 'city': מודיעין-מכבים-רעות, 'lat': 31.905411899999997, 'lon': 35.005662165798086}]",false,EricomSoftware,33166,,,,,,companies/511891517.json
Noam Urim,A leading manufacturer specializing in innovative needle-punched nonwoven fabrics solutions.,15,s,logos/noam_urim_enterprises_1993-logo.webp,https://noam-urim.com/,,false,noam-urim,,noam-urim,,"[{'street': NULL, 'houseNumber': NULL, 'city': אורים, 'lat': 31.3041665, 'lon': 34.521977}]",false,noamurim.noam,35655194,,,,,,companies/511901621.json
Protalix BioTherapeutics,"Specializing in recombinant therapeutic proteins, this company leverages its proprietary plant-based platform, ProCellEx®, to develop enhanced clinical treatments.",12,m,logos/protalix_ltd-logo.webp,https://protalix.com/,https://protalix.com/about/careers/,true,protalix-biotherapiutics,,protalix,protalix_bio,"[{'street': סנונית, 'houseNumber': 2, 'city': כרמיאל, 'lat': 32.9181058, 'lon': 35.2833819}]",false,ProtalixBio,739969,,,,,,companies/511903288.json
Alpha Omega,Functional Neurosurgery and Neuroscience Research Solutions,12,l,logos/alpha_omega_engineering-logo.webp,https://www.alphaomega-eng.com,,false,,,alpha-omega,alphaomegaeng,"[{'street': המרכבה, 'houseNumber': 6, 'city': נוף הגליל, 'lat': 32.763062, 'lon': 35.319556}]",false,AlphaOmegaEngineering,54004,,,,,,companies/511904245.json
Visionix,Non-contact 3D Optical Measurement Systems,12,m,logos/visionix_ltd-logo.webp,https://luneautech.com/visionix-accueil/,,false,visionix-usa,,visionix,VisionixUSA,"[{'street': הגן הטכנולוגי, 'houseNumber': 4, 'city': ירושלים, 'lat': 31.75025875, 'lon': 35.18612507516873}]",false,visionixusa,78227,,,,,,companies/511905929.json
FuturaGene,"A pioneer in sustainable biotechnology, dedicated to innovative solutions underpinned by a strong partnership with Suzano and a commitment to social and environmental responsibility.",17,m,logos/futuragene_israel-logo.webp,https://www.futuragene.com/,,false,futuragene-ltd.,,futuragene,,"[{'street': פקריס, 'houseNumber': 2, 'city': רחובות, 'lat': 31.9106415, 'lon': 34.8055972}]",false,,1698388,,,,,,companies/511907412.json
Netformx,"They enable IT service providers to enhance customer security, market networking solutions, and maximize Cisco rebates.",7,s,logos/netformx_ltd-logo.webp,https://www.netformx.com/,,false,netformx,netformx,netformx,netformx,"[{'street': מזא""ה, 'houseNumber': 3, 'city': תל אביב - יפו, 'lat': 32.067487, 'lon': 34.771998}]",false,nfxsupport,22816,,,,,,companies/511915688.json
Totem Plus,Automation and Navigation Systems,7,s,logos/totem_plus_ltd-logo.webp,https://www.totem-plus.com/,,false,totem-plus,totem-plus,totem-plus,,"[{'street': הנביאים, 'houseNumber': 6, 'city': רמת השרון, 'lat': 32.1262676, 'lon': 34.8531236}]",false,totem-plus-474204652751467,738585,,,,,,companies/511919953.json
Ofra Aqua Plants,Ecologic Water and Wastewater Purification Systems,17,s,logos/ofra_aqua_plants_ltd-logo.webp,https://www.ofra-aqua.co.il/,,false,,ofra-aqua-plants,ofra-aqua-plants,,"[{'street': ריש לקיש, 'houseNumber': 1, 'city': ציפורי, 'lat': 32.75212429545909, 'lon': 35.27541154573651}]",false,100063646132485,,,,,,,companies/511920803.json
KELA,Comprehensive Cyber Intelligence Platform,7,m,logos/kela_building_1994_ltd-logo.webp,https://www.ke-la.com,https://www.kelacyber.com/career-kela/,true,kela-cyber,,kela,Intel_by_KELA,"[{'street': דרך בגין, 'houseNumber': 132, 'city': תל אביב - יפו, 'lat': 32.074196, 'lon': 34.7921772}]",false,IntelByKELA,1205680,,,,,,companies/511922551.json
Texas Instruments,"A leading global semiconductor firm specializing in the design, manufacturing, testing, and sales of analog components.",16,l,logos/texas_instruments_israel_ltd-logo.webp,https://www.ti.com/,https://careers.ti.com/,true,texas-instruments,,texas-instruments,txinstruments,"[{'street': זרחין אלכסנדר, 'houseNumber': 26, 'city': רעננה, 'lat': 32.1932304, 'lon': 34.8826915}]",true,texasinstruments,1397,,,,,,companies/511924870.json
Acktar,"A global leader in light-absorbing materials and coatings, offering solutions for stray light suppression across UV, VIS, SWIR, and MWIR wavelengths.",3,s,logos/acktar_ltd-logo.webp,https://acktar.com/,,false,acktar-international,,acktar,,"[{'street': שדרות אבץ, 'houseNumber': 19, 'city': קריית גת, 'lat': 31.589942119594134, 'lon': 34.78574378423733}]",false,Acktar-143757935772770,69254113,,,,,,companies/511926255.json
Hop Engineering,Prevention and Elimination of Scale and Rust in Water Systems,17,xs,logos/hop_engineering-logo.webp,https://www.hop-pth.com,https://www.hop.uk.com/careers/current-opportunities/,true,hop-engineering-ltd,,hop-engineering,,"[{'street': גרניט, 'houseNumber': 6, 'city': פתח תקווה, 'lat': 32.10059, 'lon': 34.8652871}]",false,,11690892,,,,,,companies/511929226.json
Sivron,"Provider of advanced, dependable technology solutions for high-frequency and on-screen trading.",10,s,logos/sivron_information_technologies_ltd-logo.webp,https://sivron.com/,,false,sivron,sivron-information-technologies,sivron,,"[{'street': השלושה, 'houseNumber': 2, 'city': תל אביב - יפו, 'lat': 32.0617382, 'lon': 34.7882304}]",false,,1344516,,,,,,companies/511938474.json
Civnet,"Innovative solutions that enhance care quality, reduce risks, and support patient safety and compliance.",12,s,logos/civnet_communications_ltd-logo.webp,https://www.civnet.co.il/,,false,,,civnet,,"[{'street': הרימון, 'houseNumber': 58, 'city': חמד, 'lat': 32.01427805254814, 'lon': 34.84113990672736}]",false,,,,,,,,companies/511940447.json
FERMENTEK,A global leader in creating biochemicals to advance scientific research.,12,xs,logos/fermentek_ltd-logo.webp,https://www.fermentek.com/,,false,fermentek-biotechnology,,fermentek,,"[{'street': יציב, 'houseNumber': 4, 'city': ירושלים, 'lat': 31.8541834, 'lon': 35.2150073}]",false,Fermentek,10309193,,,,,,companies/511946022.json
Allied Universal Electronic Monitoring International,"Offering comprehensive security solutions through a blend of personnel, technology, and professional services.",7,xl,logos/allied_universal_electronic_monitoring_international-logo.webp,https://www.aus.com/,https://jobs.aus.com/,true,,,allied-universal,,"[{'street': הברזל, 'houseNumber': 2, 'city': תל אביב - יפו, 'lat': 32.106471, 'lon': 34.835657}]",,,,,,,,,companies/511951444.json
Malcam,"Founded in 1994, this company excels in microwave tomography-based volumetric measurement systems for quality control across various industries.",15,s,logos/malcam-logo.webp,https://www.malcam.com/,,false,,,malcam,malcam_ltd,"[{'street': דבורה הנביאה, 'houseNumber': 121, 'city': תל אביב - יפו, 'lat': 32.113198, 'lon': 34.844295}]",false,,723466,,,,,,companies/511953663.json
4Med,"A privately owned Israeli firm founded in 1994, specializing in developing, manufacturing, and marketing surgical instruments and medical devices primarily for plastic, reconstructive, and general surgery.",12,l,logos/4_med-logo.webp,https://4med.co.il/,,false,,,4med,,[],false,,,,,,,,companies/511966780.json
MedSim,"The UltraSim® Ultrasound Simulator offers realistic, hands-on training for medical students and professionals, widely preferred by over 1,250 global customers.",12,s,logos/medsim-logo.webp,https://medsim.com/,,false,medsim,,medsim,,"[{'street': היצירה, 'houseNumber': 10, 'city': רעננה, 'lat': 32.1950061, 'lon': 34.8768325}]",false,UltrasoundSimulation,93330,,,,,,companies/511977696.json
Samsara Vision,A privately held medical device company specializing in innovative implantable ophthalmic technologies to enhance vision for those with untreatable retinal conditions.,12,s,logos/samsara_vision-logo.webp,https://www.samsaravision.com/,,false,samsaravision,,visioncare-ophthalmic-technologies,,"[{'street': יגיע כפיים, 'houseNumber': 21, 'city': פתח תקווה, 'lat': 32.0966598, 'lon': 34.854771346954784}]",false,Visioncare-Ophthalmic-Technologies-159075204126824,18452619,,,,,,companies/511983181.json
oddin,Web3 User Acquisition Platform,14,xs,logos/oddin_software_services_1994_ltd-logo.webp,https://oddin.ai/,https://oddin.gg/careers/,true,oddin-design,oddin-gg,oddin,,"[{'street': ספיר, 'houseNumber': 1, 'city': הרצליה, 'lat': 32.1646025, 'lon': 34.8122231}]",false,,81648399,,,,,,companies/511991119.json
Moon Solar Light,Solar Street Lighting and Related Safety Products,17,xs,logos/moon_solar_light_m_s_l-logo.webp,https://www.msl.co.il/,,false,,,moon-solar-light,,"[{'street': הורביץ אלי, 'houseNumber': 19, 'city': רחובות, 'lat': 31.9020486, 'lon': 34.7887566}]",false,msllights,,,,,,,companies/511992547.json
MARS Antennas,"This compact, dual-polarized 600 MHz range antenna seamlessly blends into any environment with its unobtrusive design.",18,s,logos/mars_antennas_r_f_systems_ltd-logo.webp,https://mars-antennas.com/,,false,,,mars-antennas,,"[{'street': המנור, 'houseNumber': 3, 'city': חולון, 'lat': 32.0034974, 'lon': 34.801661}]",false,MARS-Antennas-RF-Systems-Ltd-376326442443003,975149,,,,,,companies/511994931.json
Align Technology,"A global innovator in orthodontic and restorative treatment, revolutionizing smiles with the advanced Invisalign® clear aligner system.",12,xl,logos/align_technology-logo.webp,https://www.aligntech.com/,https://jobs.aligntech.com/careers,true,align-technology,align-technology,align-technology,AlignTechInc,"[{'street': דרך יצחק רבין, 'houseNumber': 1, 'city': פתח תקווה, 'lat': 32.09047487830811, 'lon': 34.861837986563515}]",true,invisalign,6867,,,,,,companies/512020934.json
Can-Fite BioPharma,"An Israeli biopharmaceutical company advancing proprietary drug candidates through Phase II and III clinical trials for oncology, inflammatory, and metabolic diseases.",12,s,logos/can_fite_biopharma-logo.webp,https://www.canfite.com/,,false,,,can-fite-biopharma,canfitepharma,"[{'street': ברקת, 'houseNumber': 10, 'city': פתח תקווה, 'lat': 32.0903924, 'lon': 34.8587071}]",false,CanFiteBioPharma,,,,,,,companies/512022153.json
Microchip,"A leading supplier of microcontroller, mixed-signal, analog, and Flash-IP solutions with exceptional technical support.",16,xl,logos/microchip_mchp_technology_israel-logo.webp,https://www.microchip.com/,https://www.microchip.com/en-us/about/careers,true,microchip-technology,,microchip,,"[{'street': הנגר, 'houseNumber': 1, 'city': הוד השרון, 'lat': 32.1302892, 'lon': 34.8947603}]",true,,6481,,,,,,companies/512028432.json
Ambrosia SupHerb,Vitamins and Dietary Supplements,12,s,logos/ambrosia_supherb_ltd-logo.webp,https://supherbgroup.com/,,false,ambrosia-supherb-ltd,,ambrosia-supherb,,"[{'street': הירקון, 'houseNumber': 5, 'city': בני ברק, 'lat': 32.0955017, 'lon': 34.8234431}]",false,israel.supherb,2340918,,,,,,companies/512029026.json
Tri-Logical Technologies,"A member of the Ziv-Av group, this company specializes in advanced technological solutions and support services.",3,s,logos/tri_logical_technologies-logo.webp,https://www.trilogical.com/,https://www.trilogical.com/careers/,true,,,tri-logical,,"[{'street': טוליפמן, 'houseNumber': 7, 'city': ראשון לציון, 'lat': 31.9835487, 'lon': 34.8104946}]",false,,887210,,,,,,companies/512030552.json
Yamar Electronics,A fabless semiconductor company specializing in unique DC power line communication devices for wire-saving solutions since 1994.,16,xs,logos/yamar_electronics_ltd-logo.webp,https://yamar.com/,,false,yamar-electronics-ltd.,,yamar-electronics,,"[{'street': שמעון התרסי, 'houseNumber': 17, 'city': תל אביב - יפו, 'lat': 32.094572, 'lon': 34.780375}]",false,Yamar-Electronics-Ltd-479272635601506,1685295,,,,,,companies/512031204.json
IDenta Corporation,"A cutting-edge handheld device for rapid, accurate detection of various explosives and hazardous materials.",7,xs,logos/identa-logo.webp,https://www.identa-corp.com/,,false,,,identa,touchnknow,"[{'street': דרך בית לחם, 'houseNumber': 120, 'city': ירושלים, 'lat': 31.7533288, 'lon': 35.2187937}]",false,TouchandKnow,5502338,,,,,,companies/512044611.json
Optonol,Miniature Surgical Implants for Glaucoma Patients,12,s,logos/optonol-logo.webp,https://optonol.com,,false,optonol,,optonol,,"[{'street': כנפי נשרים, 'houseNumber': 3, 'city': ירושלים, 'lat': 31.787259, 'lon': 35.1899655}]",false,,146920,,,,,,companies/512051236.json
Redler Technologies,"Providing advanced servo motion control, intelligent PDUs, and smart circuit breakers since 1994.",15,s,logos/redler_technologies-logo.webp,https://www.redlertechnologies.com/,,false,redler-technologies,redler-technologies,redler-technologies,,"[{'street': עתירי ידע, 'houseNumber': 15, 'city': כפר סבא, 'lat': 32.1666204, 'lon': 34.9281644}]",false,people,10438004,,,,,,companies/512052077.json
Raanan Fish Feed,"A premier provider of top-notch fish feed and services for aquaculture farmers, enhancing fish growth and health in Israel and West Africa.",9,xs,logos/raanan_fish_feed-logo.webp,https://www.raanan-fishfeed.com/,,false,,,raanan-fish-feed,raanan_fishfeed,[],false,raananfishfeed.wa,,,,,,,companies/512069972.json
Tadiran Batteries,"Leading the industry, they specialize in lithium thionyl chloride batteries for remote wireless applications.",13,m,logos/tadiran_batteries_ltd-logo.webp,https://tadiranbat.com/,,false,,,tadiran-batteries,TadiranBat,"[{'street': שד יצחק רבין, 'houseNumber': 34, 'city': קריית עקרון, 'lat': 31.859698835503934, 'lon': 34.819351305461645}]",false,people,1133306,,,,,,companies/512074428.json
Visimix,We specialize in enhancing process performance through chemical process simulation and confident evaluation of equipment adaptation and scaling for stirred reactors.,15,s,logos/visimix-logo.webp,https://visimix.com/,,false,,,visimix,VisiMixCompany,"[{'street': המרפא, 'houseNumber': 8, 'city': ירושלים, 'lat': 31.8034689, 'lon': 35.2100604}]",false,pages,11018070,,,,,,companies/512078924.json
Galmobile,Mobile Potable Water Treatment System,7,xs,logos/galmobile.webp,https://galmobile.co.il/,,false,,,galmobile,,"[{'street': NULL, 'houseNumber': 10, 'city': מגדל תפן, 'lat': 32.977499377767366, 'lon': 35.276107713742995}]",false,,10692664,,,,,,companies/512086638.json
Rubidium,Voice-based User Interface Developer,14,s,logos/rubidium-logo.webp,https://www.rubidium.com,,false,,,rubidium,,"[{'street': הסדנא, 'houseNumber': 7, 'city': רעננה, 'lat': 32.1951246, 'lon': 34.8787131}]",false,,719354,,,,,,companies/512089129.json
Bendit,Enhance precision in targeting blood vessels with an adjustable-tip microcatheter for interventional radiology and oncology.,12,s,logos/bendit_ltd-logo.webp,https://www.bendittech.com/,,false,bendit-technologies,bendit,bendit-technologies,,"[{'street': הרצל, 'houseNumber': 23, 'city': בני ברק, 'lat': 32.0929063, 'lon': 34.835361}]",false,,4853224,,,,,,companies/512096231.json
Neurogenic,"A company at the clinical stage, focusing on creating advanced immunoassays that enhance the diagnosis of mental health conditions.",12,xs,logos/neurogenic_ltd-logo.webp,https://www.neurogenic.co.il/,,false,,,neurogenic,,"[{'street': אחד העם, 'houseNumber': 9, 'city': תל אביב - יפו, 'lat': 32.06378, 'lon': 34.769659}]",false,,,,,,,,companies/512103649.json
Lycored,"A leading innovator in comprehensive, proprietary nutrient blends for health and wellness.",12,m,logos/lycored-logo.webp,https://www.lycored.com/,,false,,,lycored,Lycored,"[{'street': דרך חברון, 'houseNumber': 60, 'city': באר שבע, 'lat': 31.2444598, 'lon': 34.8061166}]",false,Lycored,132386,,,,,,companies/512107996.json
Vortex Ecological Technologies,"This company creates efficient, user-friendly systems to clean fine particles and gas pollutants from industrial emissions.",17,xs,logos/vortex_ecological_technologies-logo.webp,https://www.vortex-envirotech.com/,,false,vortex-ecological-technologies,,vortex,,"[{'street': קצנשטיין אריה, 'houseNumber': 13, 'city': חיפה, 'lat': 32.81915160919938, 'lon': 35.04363793266622}]",false,,10306585,,,,,,companies/512115700.json
Rockwell Automation,Rockwell Automation is a leading global provider of industrial automation and digital transformation solutions that enhance productivity and sustainability.,15,m,logos/rockwell_automation-logo.webp,https://www.rockwellautomation.com/,https://www.rockwellautomation.com/en-us/company/careers.html,true,rockwell-automation,,rockwell-automation,,"[{'street': הרוקמים, 'houseNumber': 26, 'city': חולון, 'lat': 32.0077054, 'lon': 34.80060304320986}]",true,ROKAutomation,2498,,,,,,companies/512121898.json
Raicol Crystals,A leading producer of premium nonlinear optical and electro-optical components for laser systems.,16,m,logos/raicol_crystals_ltd-logo.webp,https://raicol.com/,https://raicol.com/careers,true,raicol-crystals,,raicol-crystals,RaicolCrystals,"[{'street': המלאכה, 'houseNumber': 22, 'city': ראש העין, 'lat': 32.108278, 'lon': 34.9652441}]",false,,512388,,,,,,companies/512127903.json
Amazon,"Experience unparalleled shopping and entertainment with low prices, free shipping, and a vast selection of products and Prime benefits.",9,l,logos/amazon-logo.webp,https://www.amazon.com/,,false,amazon,,amazon,amazon,"[{'street': ריב""ל, 'houseNumber': 18, 'city': תל אביב - יפו, 'lat': 32.062477, 'lon': 34.782957}]",true,Amazon,1586,,,,,,companies/512128570.json
Artis Multimedia,Enterprise Content Management Solutions,14,s,logos/artis_multimedia-logo.webp,https://www.adasystem.com,,false,artis-multimedia-ltd.,artis-multimedia,artis-multimedia,,"[{'street': עמל, 'houseNumber': 58, 'city': פתח תקווה, 'lat': 32.0953971, 'lon': 34.8531501}]",false,ArtisMultimedia,768570,,,,,,companies/512138702.json
Nicast,A description for this company isn't accessible at the moment; discover more details by exploring further.,12,xs,logos/nicast_ltd-logo.webp,https://nicast.com/,,false,nicast-ltd.,nicast,nicast,,"[{'street': יודפת, 'houseNumber': 2, 'city': לוד, 'lat': 31.9614502, 'lon': 34.8993993}]",,,,,,,,,companies/512138975.json
OptiTex,"They offer comprehensive software solutions for pattern design and 3D prototyping across various industries like fashion, automotive, and upholstery.",4,m,logos/optitex_ltd-logo.webp,https://optitex.com/,,false,optitex,,optitex,optitex,"[{'street': המלאכה, 'houseNumber': 13, 'city': ראש העין, 'lat': 32.1088976, 'lon': 34.9653972}]",false,OptiTexHQ,47316,,,,,,companies/512144528.json
MIS Implants Technologies,Simplifying Dental Implantology,12,m,logos/mis-implants-technologies.webp,https://www.mis-implants.com/,,false,,,mis-implants-technologies,MISimplantsGlob,"[{'street': NULL, 'houseNumber': NULL, 'city': בר-לב, 'lat': 32.90505548249772, 'lon': 35.19948531681993}]",false,MisImplantsTechnologiesLtdGlobal,554547,,,,,,companies/512181017.json
Psik,Digital Library for Hebrew Books & Journals,14,xs,logos/psik_solutions-logo.webp,https://psik.io/,https://psi-k.net/jobs/,true,,,psik,,"[{'street': בזלת צור יגאל, 'houseNumber': 14, 'city': צור יגאל, 'lat': 32.2179505, 'lon': 34.9827171}]",false,Psikbooks,11748623,,,,,,companies/512192626.json
Viaccess-Orca,,8,xl,logos/viaccess-orca.webp,https://www.viaccess-orca.com/,https://www.viaccess-orca.com/careers,false,viaccess-orca,,viaccess-orca,ViaccessOrca,"[{'street': זרחין אלכסנדר, 'houseNumber': 22, 'city': רעננה, 'lat': 32.19547781799695, 'lon': 34.88337779687025}]",true,VO-Israel-109442234164074,2625246,,,,,,companies/512192634.json
Helios,Developer Platform for Building Cloud-native Applications,14,m,logos/helios-1.webp,https://gethelios.dev/,https://snyk.io/careers/,false,helios-dev,,helios-1,GetHelios,"[{'street': התע""ש, 'houseNumber': 25, 'city': כפר סבא, 'lat': 32.177849419889654, 'lon': 34.927524524362425}]",false,,76638405,,,,,,companies/512194358.json
GeoSim,"They offer cutting-edge 3D city visualization technology with exceptional detail, realism, and interactive features.",4,s,logos/geosim_systems-logo.webp,https://geosimcities.com/,,false,,,geosim,,"[{'street': התנופה, 'houseNumber': 4, 'city': פתח תקווה, 'lat': 32.099682, 'lon': 34.8569061}]",false,,1439321,,,,,,companies/512204785.json
Orbograph,Streamlining check processing and healthcare payments through advanced payment automation technology.,10,m,logos/orbograph_ltd-logo.webp,https://orbograph.com/,,false,orbograph,,orbograph,Orbograph,"[{'street': קינד מוטי, 'houseNumber': 10, 'city': רחובות, 'lat': 31.89482545, 'lon': 34.7896506532138}]",false,orbograph,340147,,,,,,companies/512211582.json
Artisan Sonics,Workflow Optimization for OB-GYN Sonographers,12,xs,logos/artisan_sonics_ltd-logo.webp,https://artisansonics.com/,,false,artisan-sonics,artisan-sonics,artisan-sonics,,"[{'street': סוקולוב, 'houseNumber': 11, 'city': הוד השרון, 'lat': 32.16238825, 'lon': 34.90227674398078}]",false,artisansonics,9333862,,,,,,companies/512212622.json
Elad Technologies,"They offer automated plating, finishing, and wastewater treatment solutions for the surface finishing, electronics, PWB, and aviation industries.",15,s,logos/elad_technologies_l_s-logo.webp,https://www.eladtech.co.il/,,false,elad-technologies,elad-technologies,elad-technologies,,"[{'street': נחשון, 'houseNumber': 37, 'city': פתח תקווה, 'lat': 32.1062449, 'lon': 34.8942081}]",false,,52067789,,,,,,companies/512216144.json
DreamTeam,Hiring Intelligence Platform,14,s,logos/dream_team-logo.webp,https://www.dreamteam.app/,,false,dreamteamio,,dreamteam,,"[{'street': משכית, 'houseNumber': 3, 'city': הרצליה, 'lat': 32.1658392, 'lon': 34.8116146}]",false,,69693261,,,,,,companies/512222332.json
Flash Networks,A top provider of optimization and security solutions that enhance RAN spectral efficiency and increase network speed for operators.,18,m,logos/flash_networks_ltd-logo.webp,https://www.flashnetworks.com/,https://www.flashnetworks.com/about-us/careers,true,flash-networks-group-inc,,flash-networks,FlashNetworks,"[{'street': זרחין אלכסנדר, 'houseNumber': 13, 'city': רעננה, 'lat': 32.1976788, 'lon': 34.8811941}]",false,FlashNetworks1,10709,,,,,,companies/512223975.json
Novamed,Microorganism Diagnostic Systems,12,s,logos/novamed_ltd-logo.webp,https://www.novamed.co.il,http://www.novamed-usa.com/career_home.html,true,,,novamed,,"[{'street': הרטום, 'houseNumber': 19, 'city': ירושלים, 'lat': 31.8041398, 'lon': 35.2105915}]",false,,1513717,,,,,,companies/512225228.json
Hunters,"Their platform empowers security teams to mitigate risk, reduce complexity, and cut costs beyond traditional SIEM solutions.",7,l,logos/hunters_ltd-logo.webp,https://www.hunters.security/,,false,hunters-ai,,hunters,hunters_ai,"[{'street': היובלים, 'houseNumber': 3, 'city': הוד השרון, 'lat': 32.13357225, 'lon': 34.903327191157686}]",false,hunters.ai.cyber,18950768,,,,,,companies/512225681.json
Ascender Technologies,Android Integration in the Cloud,14,xs,logos/ascender_technologies-logo.webp,https://androidinthecloud.io,,false,ascender-technologies-ltd-,ascender-technologies,ascender-technologies-ltd,,"[{'street': פלמ""ח, 'houseNumber': 23, 'city': רחובות, 'lat': 31.8958404, 'lon': 34.8224282}]",false,,3244020,,,,,,companies/512226861.json
Landa,Real Estate Investing App,10,s,logos/landa1.webp,https://landa.app/,,false,,,landa1,landa_app,"[{'street': גרונר דב, 'houseNumber': NULL, 'city': תל אביב - יפו, 'lat': 32.12534796863394, 'lon': 34.80708584932029}]",false,,10547267,,,,,,companies/512234857.json
Optitask,Pioneering in Eye Safe Laser Transmitters and related innovative laser technologies.,3,xs,logos/optitask_ltd-logo.webp,https://www.optitask.net/,,false,,,optitask,,"[{'street': הצורן, 'houseNumber': 4, 'city': נתניה, 'lat': 32.2863673, 'lon': 34.8653462}]",false,,,,,,,,companies/512237140.json
Medisim,"Specializing in precise, non-invasive thermometry for families and innovative affordable smart ear-tag systems for real-time livestock health monitoring.",12,s,logos/medisim-logo.webp,https://www.medisim.co.il/,,false,medisim-ltd,,medisim,,"[{'street': פרופ אברהם פצ'ורניק, 'houseNumber': 7, 'city': נס ציונה, 'lat': 31.9197402, 'lon': 34.8069399}]",false,,37834430,,,,,,companies/512239054.json
Forum Engineering Technologies,Dental Solutions,12,s,logos/forum_engineering_technologies_96_ltd-logo.webp,https://www.forumtec.net/,,false,,,forum-engineering-technologies,,"[{'street': חוצות היוצר, 'houseNumber': 40, 'city': אשקלון, 'lat': 31.6338725, 'lon': 34.5655071}]",false,forumtec.net,847391,,,,,,companies/512251877.json
RT,Balloons for Military and Civilian Use,3,s,logos/rt_lta_systems-logo.webp,https://www.rt.co.il/,,false,,,rt,RTAerostats,"[{'street': חידקל, 'houseNumber': 18, 'city': יבנה, 'lat': 31.8898874, 'lon': 34.7381896}]",false,RTLTA,18812623,,,,,,companies/512254962.json
Avaya,A platform offering comprehensive training and certification programs for communication and collaboration technology skills.,18,l,logos/avaya_communication_israel_ltd-logo.webp,https://www.avaya.com/,https://www.avaya.com/en/about-avaya/careers/welcome/,true,avaya,,avaya,avaya,"[{'street': הרוקמים, 'houseNumber': 26, 'city': חולון, 'lat': 32.0077054, 'lon': 34.80060304320986}]",true,avayail,17954157,,,,,,companies/512257049.json
Identify Software,Application Problem Fixing,14,xs,logos/identify-software.webp,,,false,,,identify-software,,"[{'street': הברזל, 'houseNumber': 10, 'city': תל אביב - יפו, 'lat': 32.107403257610954, 'lon': 34.837141570650616}]",false,,13389,,,,,,companies/512265729.json
Agil Jewellery,"A Boston-based no-code agency excels in creating AI-driven web apps with OpenAI, Vertex AI, and Bubble.io for enhanced speed and agility.",1,xs,logos/agil_jewellery_ltd-logo.webp,https://www.agilfx.com/,,false,,,agil,,"[{'street': אלנבי, 'houseNumber': 94, 'city': תל אביב - יפו, 'lat': 32.066102, 'lon': 34.771614}]",,,,,,,,,companies/512280819.json
N.R. Spuntech Industries,Maker of Nonwoven Fabrics for Personal Care and Cleaning,14,m,logos/spuntech-industries.webp,https://www.spuntech.com/,,false,,,spuntech-industries,,"[{'street': אזור התעשיה, 'houseNumber': NULL, 'city': טבריה, 'lat': 32.78000813963127, 'lon': 35.50198612185872}]",false,,1399695,,,,,,companies/512288713.json
CyberArk,"Ensures seamless identity security across all access points and infrastructures, including hybrid, SaaS, and multi-cloud environments.",7,l,logos/cyberark_software_ltd-logo.webp,https://www.cyberark.com/,https://careers.cyberark.com/,true,cyber-ark-software,,cyberark,CyberArk,"[{'street': הפסגות, 'houseNumber': 9, 'city': פתח תקווה, 'lat': 32.097946, 'lon': 34.8551804}]",false,CyberArk,26630,,,,,,companies/512291642.json
Mobit Telecom,Manufacturer of satellite-based personal locator beacons for search and rescue operations utilizing the Cospas-Sarsat system.,18,xs,logos/mobit_telecom_ltd-logo.webp,https://www.sat406.com/,,false,,mobit-telecom,mobit-telecom,,"[{'street': צה""ל, 'houseNumber': 87, 'city': קריית אונו, 'lat': 32.0528949, 'lon': 34.8585821}]",false,,,,,,,,companies/512295544.json
TavTech,Pioneering skincare with pressurized gas technology to transform liquids into fine misty jets for advanced treatments.,12,s,logos/tav_tech-logo.webp,https://tav-tech.com/,,false,tav-tech-ltd,,tavtech,,"[{'street': דרך העצמאות, 'houseNumber': 40, 'city': יהוד-מונוסון, 'lat': 32.0267353, 'lon': 34.8933861}]",false,Tav-Tech-Jet-Your-Skin-117818894908437,976069,,,,,,companies/512299454.json
Ansā,Zero-pollution Coffee Roasting Solution,17,s,logos/ansa-logo.webp,https://www.ansacoffee.com/,,false,ansa-roasting,,ans,griin_tech,"[{'street': מבנה, 'houseNumber': 5, 'city': מעלות-תרשיחא, 'lat': 33.0127064663753, 'lon': 35.2762237369558}]",false,,38101172,,,,,,companies/512302431.json
Control See,Solutions for Automating Industrial Processes.,15,xs,logos/control_see_software_solutions-logo.webp,https://www.controlsee.com/,,false,control-see,,control-see,ControlSeeLtd,"[{'street': ההר, 'houseNumber': 51, 'city': כוכב יאיר, 'lat': 32.2275058, 'lon': 35.000121}]",false,,2376433,,,,,,companies/512303736.json
Baemek Advanced Technologies,Provider of cutting-edge sports nutrition supplements designed to optimize physical and mental health for both athletes and active individuals.,12,s,logos/baemek_advanced_technologies-logo.webp,https://www.baemek.com/,,false,baemek-advanced-technologies-ltd.,,baemek-advanced-technologies,,"[{'street': התעשיה, 'houseNumber': NULL, 'city': עפולה, 'lat': 32.6338282, 'lon': 35.3345142}]",false,,1162645,,,,,,companies/512312034.json
SMARTECH,"A team of industry experts specializing in advanced technology solutions, including process engineering, control systems, and artificial intelligence.",12,s,logos/smartech_medical_electronics_ltd-logo.webp,https://www.smartech.com/,https://www.smartech.com/career,true,,,smartech,,"[{'street': הגת, 'houseNumber': 12, 'city': ראשון לציון, 'lat': 31.9722961, 'lon': 34.77907899386659}]",false,,10228265,,,,,,companies/512316910.json
KMS Lighthouse,"Provides advanced search technology for immediate, accurate information to enhance customer and call center experiences.",14,m,logos/kms_lighthouse-logo.webp,https://kmslh.com/,,false,kms-lighthouse,,kms-lighthouse,kmslighthouse,"[{'street': שמשון, 'houseNumber': 9, 'city': פתח תקווה, 'lat': 32.0953047, 'lon': 34.8622572}]",false,pages,2982156,kmslh/97.008,,,,,companies/512336231.json
Super Fine,Milling Technology for Particle Size Reduction,14,s,logos/super_fine-logo.webp,https://www.superfinemicro.com/,,false,,,super-fine,,[],false,,82019836,,,,,,companies/512338799.json
PolyHeal,Microsphere-based Wound Healing Products,12,xs,logos/polyheal.webp,https://www.polyhealmicro.com/,,false,,,polyheal,,"[{'street': מפי, 'houseNumber': 5, 'city': נתניה, 'lat': 32.27521123025979, 'lon': 34.861528048262066}]",false,,,,,,,,companies/512340316.json
GreenVision Systems,"Specializing in innovative, real-time pollution monitoring and product authentication services to enhance environmental safety and health.",17,m,logos/green_vision_systems-logo.webp,https://www.greenvs.com/,,false,,green-vision-systems,greenvision-systems,,"[{'street': דבורה הנביאה, 'houseNumber': 121, 'city': תל אביב - יפו, 'lat': 32.113198, 'lon': 34.844295}]",false,,,,,,,,companies/512349606.json
Ceragon Networks,We provide innovative and affordable wireless solutions for mobile operators to enhance their broadband service delivery.,18,l,logos/ceragon_networks-logo.webp,https://www.ceragon.com/,https://www.ceragon.com/about-ceragon/careers,true,ceragon-networks,,ceragon-networks,Ceragon,"[{'street': אריאב אורי, 'houseNumber': 3, 'city': ראש העין, 'lat': 32.1127148, 'lon': 34.9419436}]",false,ceragonnetworks,14470,Ceragon/D3.003,,,,,companies/512352444.json
BeeSense,"Producer of cutting-edge multi-sensor and wireless communication systems for intelligence, surveillance, and reconnaissance.",3,s,logos/beesense_sensors_systems-logo.webp,https://beesense-sys.com/,,false,bee-sense,,seraphim-optronics,,"[{'street': המלאכה, 'houseNumber': 23, 'city': ראש העין, 'lat': 32.10759415, 'lon': 34.97134494812779}]",false,,40824872,,,,,,companies/512353186.json
WizLAN,"A premier provider of top-tier fiber-optic connectivity solutions tailored for diverse industrial, corporate, security, and networking needs.",18,xs,logos/wizlan-logo.webp,https://www.wizlan.com/,,false,,,wizlan,,"[{'street': יוזמה, 'houseNumber': 8, 'city': טירת כרמל, 'lat': 32.7721677, 'lon': 34.9656441}]",false,,2106458,,,,,,companies/512355116.json
Beam,Confidential Cryptocurrency and Decentralized Finance Platform,10,s,logos/beam_and_stone-logo.webp,https://www.beam.mw/,,false,,,beam,beamprivacy,"[{'street': ואדי חמיד, 'houseNumber': 1, 'city': סאג'ור, 'lat': 32.94157712184111, 'lon': 35.351591733486764}]",false,,11804811,,,,,,companies/512357724.json
Fibrolan,"Providing integrated access systems with versatile solutions for mobile backhaul, fronthaul, and carrier Ethernet applications, supporting high-speed rates and robust OAM tools.",18,s,logos/fibrolan-logo.webp,https://www.fibrolan.com/,,false,,,fibrolan,fibrolan,"[{'street': הכרמל, 'houseNumber': 2, 'city': יקנעם עילית, 'lat': 32.6578027, 'lon': 35.1002987}]",false,FibroLAN-CEE-GmbH-1415354378678442,114346,,,,,,companies/512367525.json
MyForm,Personal Protective Gear,3,s,logos/myform-logo.webp,https://www.myformgroup.com/,,false,,,myform,,"[{'street': לינקולן, 'houseNumber': 9, 'city': תל אביב - יפו, 'lat': 32.067078, 'lon': 34.781747}]",false,,,,,,,,companies/512378142.json
Belong,Social and Professional Network for Patients,12,m,logos/belong_financial_markets-logo.webp,https://belong.life/,,false,belongtail,,belong,Belong_Life,"[{'street': מונטיפיורי, 'houseNumber': 48, 'city': תל אביב - יפו, 'lat': 32.065774, 'lon': 34.774733}]",false,BelongTail,9371841,,,,,,companies/512378399.json
Aposense,"An innovative Israeli biotechnology company spearheaded by Nobel Laureate Professor Roger D Kornberg, developing a universal platform for delivering genetic drugs into cells.",12,s,logos/aposense-logo.webp,https://aposense.com/,,false,,aposense,aposense,,"[{'street': אודם, 'houseNumber': 5, 'city': פתח תקווה, 'lat': 32.0896507, 'lon': 34.8577193}]",false,,1833144,,,,,,companies/512380296.json
Sivan Design,"Founded in 1996, this company excels in delivering global land project solutions and integrated GIS-ERP systems.",13,s,logos/sivan_design_d_s-logo.webp,https://sivandesign.com/,,false,sivan-design,,sivan-design,sivandesign,"[{'street': התדהר, 'houseNumber': 5, 'city': רעננה, 'lat': 32.1985331, 'lon': 34.8842596}]",false,Sivandesign96,230217,,,,,,companies/512380338.json
Naveh Pharma,They specialize in creating and supplying medical and health products.,12,xs,logos/naveh_pharma_1996-logo.webp,https://www.navehpharma.com/,,false,naveh-pharma-ltd-,,naveh-pharma,naveh1pharma,"[{'street': יד חרוצים, 'houseNumber': 11, 'city': נתניה, 'lat': 32.2794157, 'lon': 34.86421640322024}]",false,NavehPharma,8986142,,,,,,companies/512382136.json
ST Engineering,Delivering technological and innovative solutions for global security and sustainability.,17,m,logos/st_engineering_telematics_wireless-logo.webp,https://www.stengg.com/,https://www.stengg.com/en/careers/,true,st-engineering-north-america,,st-engineering,,"[{'street': המלאכה, 'houseNumber': 26, 'city': חולון, 'lat': 32.0205168, 'lon': 34.8047414}]",true,,128492,,,,,,companies/512383878.json
OrSense,"Based in Tel Aviv-Yafo, this company is reachable through various contact methods including phone, fax, and email for inquiries and information.",12,s,logos/orsense-logo.webp,https://orsense.com/,https://orsense.com/careers/,true,orsense,,orsense,,"[{'street': הנחושת, 'houseNumber': 6, 'city': תל אביב - יפו, 'lat': 32.10981, 'lon': 34.838876}]",false,,105808,,,,,,companies/512389214.json
Allot,"They enhance mobile, home, and business security while boosting ARPU by protecting against cyber threats and optimizing service opportunities with actionable intelligence.",7,l,logos/allot-logo.webp,https://www.allot.com/,,false,,,allot,allot_ltd,"[{'street': הנגר, 'houseNumber': 22, 'city': הוד השרון, 'lat': 32.12967605, 'lon': 34.894563362577514}]",false,AllotCommunications,,,,,,,companies/512394776.json
Cisco Systems,"A global leader in technology driving an inclusive future through advanced software, networking, and security solutions.",18,l,logos/cisco_systems_israel-logo.webp,https://www.cisco.com/,https://www.cisco.com/c/en/us/about/careers.html,true,cisco,,cisco-systems,Cisco,"[{'street': המלאכה, 'houseNumber': 32, 'city': נתניה, 'lat': 32.2846342, 'lon': 34.8605173}]",true,Cisco,1063,,,,,,companies/512396144.json
Infineon,"A leading provider of advanced semiconductor solutions for microcontrollers, sensors, automotive systems, power management, and connectivity.",16,m,logos/infineon_technologies_memory_solutions_israel-logo.webp,https://www.infineon.com/,https://www.infineon.com/cms/en/careers/,true,infineon-technologies,,infineon,,"[{'street': שד לנטוס טום, 'houseNumber': 10, 'city': נתניה, 'lat': 32.31188175549295, 'lon': 34.87013047302717}]",true,,,,,,,,companies/512397332.json
